~VERSION INFORMATION
VERS.           2.0   :CWLS Log ASCII Standard - VERSION 2.0
WRAP.           NO    :One Line per depth step
PROD.  Schlumberger   :LAS Producer
PROG.  DLIS to ASCII 2.3                               :LAS Program name and version
CREA.        2020/03/20 13:20                          :LAS Creation date {YYYY/MM/DD hh:mm}
DLIS_CREA.  2020-Feb-20 13:36                          :DLIS Creation date and time {YYYY-MMM-DD hh:mm}
SOURCE.     Esso_BTWW2PH_S1R1_SonicScanner_220m_1352m_Processed Results DLIS.dlis  :DLIS File Name
FILE-ID.     West Barracouta W2 Pilot Hole             :File Identification Number
#--------------------------------------------------
~WELL INFORMATION
#MNEM.UNIT      DATA             DESCRIPTION
#---- ------ --------------   -----------------------------
STRT .M       220.0656       :START DEPTH     
STOP .M      1352.8548       :STOP DEPTH     
STEP .M         0.1524       :STEP     
NULL .          -999.25      :NULL VALUE
COMP .        Esso Australia Pty Ltd                   :COMPANY
WELL .        West Barracouta W2 Pilot Hole            :WELL
FLD  .        West Barracouta                          :FIELD
LOC  .                                                 :LOCATION
CNTY .                                                 :COUNTY
STAT .        Victoria                                 :STATE
CTRY .        Australia                                :COUNTRY
API  .                                                 :API NUMBER
UWI  .                                                 :UNIQUE WELL ID
DATE .        13-Feb-2020                              :LOG DATE {DD-MMM-YYYY}
SRVC .        Schlumberger                             :SERVICE COMPANY
LATI .DEG     38° 19' 4.505" S                        :LATITUDE
LONG .DEG     147° 36' 57.772" E                      :LONGITUDE
GDAT .                                                 :GeoDetic Datum
#-----------------------------------------------------------------------------
~PARAMETER INFORMATION
#MNEM.UNIT    VALUE                      DESCRIPTION
#---- -----   --------------------       ------------------------
RUN  .          S1R1                     :RUN NUMBER
PDAT .        MSL                        :Permanent Datum
EPD  .M           0.000000               :Elevation of Permanent Datum above Mean Sea Level
LMF  .          DF                       :Logging Measured From (Name of Logging Elevation Reference)
APD  .M          46.400002               :Elevation of Depth Reference (LMF) above Permanent Datum
#-----------------------------------------------------------------------------
~CURVE INFORMATION
#MNEM.UNIT   API CODE                                  DESCRIPTION
#---- -----  --------                                  -----------------------
MD   .M                                                :DEPTH (BOREHOLE) {F10.4}
MD   .M                                                : {F13.4}
BS   .IN                                               :Bit Size {F13.4}
DTCO .US/F                                             :Compressional slowness {F13.4}
DTSH .US/F                                             :Shear slowness {F13.4}
GR_EDTC.GAPI                                           :Gamma Ray {F13.4}
HD1_PPC1.IN                                            :PPC1 Hole Diameter 1 {F13.4}
HD2_PPC1.IN                                            :PPC1 Hole Diameter 2 {F13.4}
PR   .UNITLESS                                         :Possion's Ratio {F13.4}
VPVS .UNITLESS                                         :VpVs Ratio {F13.4}
#-----------------------------------------------------------------------------
# 
#      MD         MD           BS           DTCO         DTSH       GR_EDTC      HD1_PPC1     HD2_PPC1       PR           VPVS
#
~A  
# ...
 1122.5784    1122.5784       9.5000     121.8577     298.5688      57.4882       9.5988       9.4732       0.4001       2.4501
 1122.7308    1122.7308       9.5000     122.1519     301.0616      58.6060       9.6100       9.4856       0.4015       2.4646
 1122.8832    1122.8832       9.5000     122.4450     304.3450      61.1535       9.6210       9.4732       0.4034       2.4856
 1123.0356    1123.0356       9.5000     122.8161     308.4318      64.6307       9.5876       9.4732       0.4058       2.5113
 1123.1880    1123.1880       9.5000     123.4289     312.6721      63.3816       9.6098       9.4603       0.4077       2.5332
 1123.3404    1123.3404       9.5000     124.2666     316.1082      62.0870       9.6210       9.4732       0.4086       2.5438
 1123.4928    1123.4928       9.5000     125.3175     318.4225      56.7042       9.5988       9.4603       0.4084       2.5409
 1123.6452    1123.6452       9.5000     126.0928     319.8630      55.6113       9.6098       9.4603       0.4080       2.5367
 1123.7976    1123.7976       9.5000     126.3767     320.4321      56.3376       9.5988       9.4732       0.4079       2.5355
 1123.9500    1123.9500       9.5000     126.3348     319.9054      56.1140       9.5766       9.4727       0.4076       2.5322
 1124.1024    1124.1024       9.5000     126.1708     318.1872      58.1873       9.5988       9.4732       0.4067       2.5219
 1124.2548    1124.2548       9.5000     125.8632     316.3518      62.1843       9.5988       9.4732       0.4060       2.5135
 1124.4072    1124.4072       9.5000     126.2653     315.6964      65.2809       9.5654       9.4603       0.4048       2.5003
 1124.5596    1124.5596       9.5000     128.0142     315.9431      65.9439       9.5766       9.4856       0.4018       2.4680
 1124.7120    1124.7120       9.5000     127.6595     315.4839      64.0617       9.5988       9.4732       0.4021       2.4713
 1124.8644    1124.8644       9.5000     126.3817     313.2503      60.1036       9.5654       9.4732       0.4028       2.4786
 1125.0168    1125.0168       9.5000     125.4613     309.6836      60.2540       9.5766       9.4732       0.4018       2.4684
 1125.1692    1125.1692       9.5000     124.8260     307.2193      58.4708       9.5878       9.4732       0.4011       2.4612
 1125.3216    1125.3216       9.5000     123.5872     306.2661      62.3555       9.5766       9.4732       0.4027       2.4781
 1125.4740    1125.4740       9.5000     123.3460     307.4790      62.3975       9.5655       9.4732       0.4041       2.4928
 1125.6264    1125.6264       9.5000     124.2694     310.0981      64.9545       9.5544       9.4732       0.4043       2.4954
 1125.7788    1125.7788       9.5000     125.6090     314.9398      64.6880       9.5322       9.4732       0.4054       2.5073
 1125.9312    1125.9312       9.5000     126.6271     320.9481      66.3020       9.5322       9.4732       0.4078       2.5346
 1126.0836    1126.0836       9.5000     127.7986     326.3002      68.4440       9.5322       9.4732       0.4094       2.5532
 1126.2360    1126.2360       9.5000     129.6612     328.4817      66.7231       9.5322       9.4732       0.4077       2.5334
 1126.3884    1126.3884       9.5000     129.4754     326.2977      64.0913       9.5322       9.4603       0.4066       2.5202
 1126.5408    1126.5408       9.5000     128.7296     320.6627      57.0808       9.5322       9.4856       0.4039       2.4910
 1126.6932    1126.6932       9.5000     127.4069     314.2611      53.9702       9.5433       9.4979       0.4017       2.4666
 1126.8456    1126.8456       9.5000     124.1779     309.4413      49.4208       9.5433       9.4979       0.4040       2.4919
 1126.9980    1126.9980       9.5000     123.0823     306.6540      51.1273       9.5322       9.4856       0.4040       2.4915
 1127.1504    1127.1504       9.5000     123.3027     305.1496      55.1647       9.5322       9.4727       0.4024       2.4748
 1127.3028    1127.3028       9.5000     124.0770     304.7979      58.1394       9.5432       9.4727       0.4007       2.4565
 1127.4552    1127.4552       9.5000     126.2196     306.2725      60.9936       9.5322       9.4727       0.3977       2.4265
 1127.6076    1127.6076       9.5000     129.5549     309.9359      62.4579       9.5322       9.4856       0.3941       2.3923
 1127.7600    1127.7600       9.5000     130.8013     314.5451      66.0646       9.5322       9.4603       0.3955       2.4048
 1127.9124    1127.9124       9.5000     129.6783     317.4026      64.5148       9.5322       9.4727       0.3998       2.4476
 1128.0648    1128.0648       9.5000     128.0755     316.8000      62.2416       9.5322       9.4856       0.4023       2.4735
 1128.2172    1128.2172       9.5000     126.8830     313.0240      61.8857       9.5322       9.4732       0.4017       2.4670
 1128.3696    1128.3696       9.5000     126.2690     307.7965      63.0335       9.5322       9.4603       0.3988       2.4376
 1128.5220    1128.5220       9.5000     125.1903     303.9026      61.2245       9.5322       9.4850       0.3978       2.4275
 1128.6744    1128.6744       9.5000     122.1587     302.2726      60.8851       9.5322       9.4732       0.4024       2.4744
 1128.8268    1128.8268       9.5000     121.6176     302.5449      63.2801       9.5322       9.4727       0.4036       2.4877
 1128.9792    1128.9792       9.5000     122.5734     304.6506      66.9044       9.5322       9.4856       0.4034       2.4855
 1129.1316    1129.1316       9.5000     123.9152     308.4366      69.7852       9.5433       9.4732       0.4038       2.4891
 1129.2840    1129.2840       9.5000     125.3570     313.1978      67.3927       9.5322       9.4979       0.4046       2.4984
 1129.4364    1129.4364       9.5000     126.5455     317.9015      67.6600       9.5322       9.4727       0.4059       2.5122
 1129.5888    1129.5888       9.5000     127.2091     321.6542      65.3166       9.5322       9.4856       0.4073       2.5285
 1129.7412    1129.7412       9.5000     127.1552     323.5068      63.9867       9.5322       9.4979       0.4086       2.5442
 1129.8936    1129.8936       9.5000     126.4167     322.3985      62.9045       9.5322       9.4856       0.4092       2.5503
 1130.0460    1130.0460       9.5000     125.2115     317.9615      68.2110       9.5322       9.4856       0.4082       2.5394
 1130.1984    1130.1984       9.5000     123.9145     311.1429      68.4181       9.5322       9.4603       0.4057       2.5109
 1130.3508    1130.3508       9.5000     123.0905     304.3076      66.5931       9.5322       9.4979       0.4022       2.4722
 1130.5032    1130.5032       9.5000     122.7931     299.9175      57.3491       9.5655       9.4856       0.3993       2.4425
 1130.6556    1130.6556       9.5000     122.7983     298.6339      56.0374       9.5655       9.4732       0.3983       2.4319
 1130.8080    1130.8080       9.5000     122.8581     298.9151      59.7687       9.5544       9.4603       0.3984       2.4330
 1130.9604    1130.9604       9.5000     122.7531     299.1693      65.1763       9.5544       9.4727       0.3988       2.4372
 1131.1128    1131.1128       9.5000     122.4155     298.7866      64.3933       9.5766       9.4979       0.3991       2.4408
 1131.2652    1131.2652       9.5000     121.9879     298.2443      61.4735       9.5655       9.4979       0.3995       2.4449
 1131.4176    1131.4176       9.5000     121.5617     298.3332      57.0142       9.5766       9.4727       0.4005       2.4542
 1131.5700    1131.5700       9.5000     121.1827     299.2019      56.6815       9.5766       9.4856       0.4019       2.4690
 1131.7224    1131.7224       9.5000     120.6753     300.1190      53.4743       9.5766       9.4732       0.4036       2.4870
 1131.8748    1131.8748       9.5000     119.9785     300.2810      50.3677       9.5766       9.4856       0.4050       2.5028
 1132.0272    1132.0272       9.5000     119.2703     299.5151      48.8504       9.5878       9.4979       0.4058       2.5112
