~VERSION INFORMATION
VERS.           2.0   :CWLS Log ASCII Standard - VERSION 2.0
WRAP.           NO    :One Line per depth step
PROD.  Schlumberger   :LAS Producer
PROG.  DLIS to ASCII 2.3                               :LAS Program name and version
CREA.        2020/03/20 13:20                          :LAS Creation date {YYYY/MM/DD hh:mm}
DLIS_CREA.  2020-Feb-20 13:36                          :DLIS Creation date and time {YYYY-MMM-DD hh:mm}
SOURCE.     Esso_BTWW2PH_S1R1_SonicScanner_220m_1352m_Processed Results DLIS.dlis  :DLIS File Name
FILE-ID.     West Barracouta W2 Pilot Hole             :File Identification Number
#--------------------------------------------------
~WELL INFORMATION
#MNEM.UNIT      DATA             DESCRIPTION
#---- ------ --------------   -----------------------------
STRT .M       220.0656       :START DEPTH     
STOP .M      1352.8548       :STOP DEPTH     
STEP .M         0.1524       :STEP     
NULL .          -999.25      :NULL VALUE
COMP .        Esso Australia Pty Ltd                   :COMPANY
WELL .        West Barracouta W2 Pilot Hole            :WELL
FLD  .        West Barracouta                          :FIELD
LOC  .                                                 :LOCATION
CNTY .                                                 :COUNTY
STAT .        Victoria                                 :STATE
CTRY .        Australia                                :COUNTRY
API  .                                                 :API NUMBER
UWI  .                                                 :UNIQUE WELL ID
DATE .        13-Feb-2020                              :LOG DATE {DD-MMM-YYYY}
SRVC .        Schlumberger                             :SERVICE COMPANY
LATI .DEG     38° 19' 4.505" S                        :LATITUDE
LONG .DEG     147° 36' 57.772" E                      :LONGITUDE
GDAT .                                                 :GeoDetic Datum
#-----------------------------------------------------------------------------
~PARAMETER INFORMATION
#MNEM.UNIT    VALUE                      DESCRIPTION
#---- -----   --------------------       ------------------------
RUN  .          S1R1                     :RUN NUMBER
PDAT .        MSL                        :Permanent Datum
EPD  .M           0.000000               :Elevation of Permanent Datum above Mean Sea Level
LMF  .          DF                       :Logging Measured From (Name of Logging Elevation Reference)
APD  .M          46.400002               :Elevation of Depth Reference (LMF) above Permanent Datum
#-----------------------------------------------------------------------------
~CURVE INFORMATION
#MNEM.UNIT   API CODE                                  DESCRIPTION
#---- -----  --------                                  -----------------------
MD   .M                                                :DEPTH (BOREHOLE) {F10.4}
MD   .M                                                : {F13.4}
BS   .IN                                               :Bit Size {F13.4}
DTCO .US/F                                             :Compressional slowness {F13.4}
DTSH .US/F                                             :Shear slowness {F13.4}
GR_EDTC.GAPI                                           :Gamma Ray {F13.4}
HD1_PPC1.IN                                            :PPC1 Hole Diameter 1 {F13.4}
HD2_PPC1.IN                                            :PPC1 Hole Diameter 2 {F13.4}
PR   .UNITLESS                                         :Possion's Ratio {F13.4}
VPVS .UNITLESS                                         :VpVs Ratio {F13.4}
#-----------------------------------------------------------------------------
# 
#      MD         MD           BS           DTCO         DTSH       GR_EDTC      HD1_PPC1     HD2_PPC1       PR           VPVS
#
~A  
# ...
 1343.4060    1343.4060       9.5000     101.7168     177.8268      27.3241       9.6542       9.5225       0.2569       1.7483
 1343.5584    1343.5584       9.5000     102.3963     179.1070      26.1480       9.6542       9.5729       0.2572       1.7492
 1343.7108    1343.7108       9.5000     102.7361     180.8482      26.4489       9.6875       9.5729       0.2618       1.7603
 1343.8632    1343.8632       9.5000     102.4942     183.1418      24.1977       9.7208       9.5729       0.2720       1.7868
 1344.0156    1344.0156       9.5000     102.5292     185.5189      24.7712       9.7208       9.5981       0.2801       1.8094
 1344.1680    1344.1680       9.5000     102.6282     187.9246      23.8615       9.7651       9.5606       0.2875       1.8311
 1344.3204    1344.3204       9.5000     102.8220     188.6385      24.3946       9.6542       9.5858       0.2887       1.8346
 1344.4728    1344.4728       9.5000     103.1610     188.1783      24.3358       9.7097       9.5858       0.2852       1.8241
 1344.6252    1344.6252       9.5000     103.5993     187.5887      26.1891       9.7762       9.5729       0.2806       1.8107
 1344.7776    1344.7776       9.5000     103.9977     188.0189      26.2782       9.7431       9.5987       0.2796       1.8079
 1344.9300    1344.9300       9.5000     104.2245     190.4662      28.1157       9.6542       9.6104       0.2863       1.8275
 1345.0824    1345.0824       9.5000     104.3750     194.1281      27.6854       9.6542       9.5981       0.2967       1.8599
 1345.2348    1345.2348       9.5000     104.5597     194.3831      27.7677       9.6098       9.5477       0.2964       1.8591
 1345.3872    1345.3872       9.5000     104.8635     191.4516      27.6785       9.6432       9.5729       0.2857       1.8257
 1345.5396    1345.5396       9.5000     105.8065     189.0785      27.8773       9.6875       9.6110       0.2720       1.7870
 1345.6920    1345.6920       9.5000     106.1136     189.6039      29.1080       9.7208       9.6485       0.2720       1.7868
 1345.8444    1345.8444       9.5000     107.0370     193.4606      29.3117       9.6765       9.5852       0.2794       1.8074
 1345.9968    1345.9968       9.5000     107.2716     195.5142      28.7071       9.6765       9.5729       0.2847       1.8226
 1346.1492    1346.1492       9.5000     107.5100     195.1037      28.7135       9.6322       9.6110       0.2820       1.8147
 1346.3016    1346.3016       9.5000     107.5529     192.5577      27.7549       9.6107       9.5729       0.2733       1.7904
 1346.4540    1346.4540       9.5000     107.3346     190.9184      27.1637       9.6432       9.6110       0.2689       1.7787
 1346.6064    1346.6064       9.5000     106.7865     190.5844      27.1637       9.6322       9.6110       0.2712       1.7847
 1346.7588    1346.7588       9.5000     105.8248     190.1236      27.1637       9.6765       9.6485       0.2756       1.7966
 1346.9112    1346.9112       9.5000     104.4596     188.4574      27.1637       9.6542       9.6110       0.2783       1.8041
 1347.0636    1347.0636       9.5000     103.4311     186.6712      27.1637       9.6765       9.5606       0.2785       1.8048
 1347.2160    1347.2160       9.5000     103.2096     185.0201      27.1637       9.6098       9.5858       0.2741       1.7927
 1347.3684    1347.3684       9.5000     104.0096     185.0452      27.1637       9.6098       9.5858       0.2691       1.7791
 1347.5208    1347.5208       9.5000     105.4149     187.4458      27.1637       9.6654       9.5981       0.2687       1.7782
 1347.6732    1347.6732       9.5000     106.1825     191.9299      27.1637       9.6542       9.6110       0.2795       1.8075
 1347.8256    1347.8256       9.5000     106.4292     195.5310      27.1637       9.6542       9.5729       0.2895       1.8372
 1347.9780    1347.9780       9.5000     106.1601     195.6812      27.1637       9.6765       9.5858       0.2915       1.8433
 1348.1304    1348.1304       9.5000     104.6443     194.0670      27.1637       9.6654       9.5729       0.2950       1.8545
 1348.2828    1348.2828       9.5000     103.2222     191.8266      27.1637       9.6551       9.5852       0.2962       1.8584
 1348.4352    1348.4352       9.5000     102.5478     191.2322      27.1637       9.6654       9.6356       0.2982       1.8648
 1348.5876    1348.5876       9.5000     102.5908     192.8628      27.1637       9.6542       9.7239       0.3027       1.8799
 1348.7400    1348.7400       9.5000     103.2916     194.6671      27.1637       9.6765       9.6736       0.3041       1.8846
 1348.8924    1348.8924       9.5000     104.3636     195.8400      27.1637       9.6542       9.6736       0.3017       1.8765
 1349.0448    1349.0448       9.5000     105.4018     199.2361      27.1637       9.6432       9.6613       0.3057       1.8903
 1349.1972    1349.1972       9.5000     106.5489     204.3763      27.1637       9.6543       9.6865       0.3134       1.9181
 1349.3496    1349.3496       9.5000     107.4189     208.4731      27.1637       9.6875       9.6485       0.3193       1.9407
 1349.5020    1349.5020       9.5000     107.8412     209.9640      27.1637       9.7208       9.6736       0.3208       1.9470
 1349.6544    1349.6544       9.5000     107.6519     209.4327      27.1637       9.6765       9.7116       0.3205       1.9455
 1349.8068    1349.8068       9.5000     107.8005     208.8473      27.1637       9.6322       9.5858       0.3184       1.9373
 1349.9592    1349.9592       9.5000     108.3037     209.4977      27.1637       9.6322       9.7116       0.3176       1.9344
 1350.1116    1350.1116       9.5000     109.7759     211.2122      27.1637       9.6322       9.7116       0.3149       1.9240
 1350.2640    1350.2640       9.5000     112.1376     214.9162      27.1637       9.6765       9.7368       0.3130       1.9165
 1350.4164    1350.4164       9.5000     114.9786     221.0404      27.1637       9.6432       9.7747       0.3145       1.9224
 1350.5688    1350.5688       9.5000     116.8162     228.6472      27.1637       9.5988       9.7747       0.3234       1.9573
 1350.7212    1350.7212       9.5000     117.1683     233.3316      27.1637       9.5988       9.5987       0.3314       1.9914
 1350.8736    1350.8736       9.5000     115.6406     234.5509      27.1637       9.6432       9.6110       0.3394       2.0283
 1351.0260    1351.0260       9.5000     113.7774     233.3562      27.1637       9.6542       9.6485       0.3441       2.0510
 1351.1784    1351.1784       9.5000    -999.2500    -999.2500      27.1637       9.6765       9.6736    -999.2500    -999.2500
 1351.3308    1351.3308       9.5000    -999.2500    -999.2500      27.1637       9.7208       9.6865    -999.2500    -999.2500
 1351.4832    1351.4832       9.5000    -999.2500    -999.2500      27.1637       9.6100       9.6613    -999.2500    -999.2500
 1351.6356    1351.6356       9.5000    -999.2500    -999.2500      27.1637       9.5988       9.6491    -999.2500    -999.2500
 1351.7880    1351.7880       9.5000    -999.2500    -999.2500      27.1637       9.6322       9.6233    -999.2500    -999.2500
 1351.9404    1351.9404       9.5000    -999.2500    -999.2500      27.1637       9.6322       9.6865    -999.2500    -999.2500
 1352.0928    1352.0928       9.5000    -999.2500    -999.2500      27.1637       9.6100       9.6865    -999.2500    -999.2500
 1352.2452    1352.2452       9.5000    -999.2500    -999.2500      27.1637       9.5878       9.6613    -999.2500    -999.2500
 1352.3976    1352.3976       9.5000    -999.2500    -999.2500      27.1637       9.6324       9.7741    -999.2500    -999.2500
 1352.5500    1352.5500       9.5000    -999.2500    -999.2500      27.1637       9.6210       9.6356    -999.2500    -999.2500
 1352.7024    1352.7024       9.5000    -999.2500    -999.2500      27.1637       9.6433       9.6994    -999.2500    -999.2500
 1352.8548    1352.8548       9.5000    -999.2500    -999.2500      27.1637       9.5878       9.5981    -999.2500    -999.2500
