~VERSION INFORMATION
VERS.           2.0   :CWLS Log ASCII Standard - VERSION 2.0
WRAP.           NO    :One Line per depth step
PROD.  Schlumberger   :LAS Producer
PROG.  DLIS to ASCII 2.3                               :LAS Program name and version
CREA.        2020/03/20 13:20                          :LAS Creation date {YYYY/MM/DD hh:mm}
DLIS_CREA.  2020-Feb-20 13:36                          :DLIS Creation date and time {YYYY-MMM-DD hh:mm}
SOURCE.     Esso_BTWW2PH_S1R1_SonicScanner_220m_1352m_Processed Results DLIS.dlis  :DLIS File Name
FILE-ID.     West Barracouta W2 Pilot Hole             :File Identification Number
#--------------------------------------------------
~WELL INFORMATION
#MNEM.UNIT      DATA             DESCRIPTION
#---- ------ --------------   -----------------------------
STRT .M       220.0656       :START DEPTH     
STOP .M      1352.8548       :STOP DEPTH     
STEP .M         0.1524       :STEP     
NULL .          -999.25      :NULL VALUE
COMP .        Esso Australia Pty Ltd                   :COMPANY
WELL .        West Barracouta W2 Pilot Hole            :WELL
FLD  .        West Barracouta                          :FIELD
LOC  .                                                 :LOCATION
CNTY .                                                 :COUNTY
STAT .        Victoria                                 :STATE
CTRY .        Australia                                :COUNTRY
API  .                                                 :API NUMBER
UWI  .                                                 :UNIQUE WELL ID
DATE .        13-Feb-2020                              :LOG DATE {DD-MMM-YYYY}
SRVC .        Schlumberger                             :SERVICE COMPANY
LATI .DEG     38° 19' 4.505" S                        :LATITUDE
LONG .DEG     147° 36' 57.772" E                      :LONGITUDE
GDAT .                                                 :GeoDetic Datum
#-----------------------------------------------------------------------------
~PARAMETER INFORMATION
#MNEM.UNIT    VALUE                      DESCRIPTION
#---- -----   --------------------       ------------------------
RUN  .          S1R1                     :RUN NUMBER
PDAT .        MSL                        :Permanent Datum
EPD  .M           0.000000               :Elevation of Permanent Datum above Mean Sea Level
LMF  .          DF                       :Logging Measured From (Name of Logging Elevation Reference)
APD  .M          46.400002               :Elevation of Depth Reference (LMF) above Permanent Datum
#-----------------------------------------------------------------------------
~CURVE INFORMATION
#MNEM.UNIT   API CODE                                  DESCRIPTION
#---- -----  --------                                  -----------------------
MD   .M                                                :DEPTH (BOREHOLE) {F10.4}
MD   .M                                                : {F13.4}
BS   .IN                                               :Bit Size {F13.4}
DTCO .US/F                                             :Compressional slowness {F13.4}
DTSH .US/F                                             :Shear slowness {F13.4}
GR_EDTC.GAPI                                           :Gamma Ray {F13.4}
HD1_PPC1.IN                                            :PPC1 Hole Diameter 1 {F13.4}
HD2_PPC1.IN                                            :PPC1 Hole Diameter 2 {F13.4}
PR   .UNITLESS                                         :Possion's Ratio {F13.4}
VPVS .UNITLESS                                         :VpVs Ratio {F13.4}
#-----------------------------------------------------------------------------
# 
#      MD         MD           BS           DTCO         DTSH       GR_EDTC      HD1_PPC1     HD2_PPC1       PR           VPVS
#
~A  
# ...
  440.8932     440.8932      17.5000     120.1734     262.0388      14.9048      12.4394      12.4500       0.3668       2.1805
  441.0456     441.0456      17.5000     121.3956     262.6014      16.0417      12.4498      12.4617       0.3641       2.1632
  441.1980     441.1980      17.5000     121.6862     257.1687      15.3831      12.4379      12.4497       0.3558       2.1134
  441.3504     441.3504      17.5000     120.9698     247.5059      14.9428      12.4273      12.4497       0.3431       2.0460
  441.5028     441.5028      17.5000     118.3506     237.1527      14.3335      12.4498      12.4500       0.3342       2.0038
  441.6552     441.6552      17.5000     115.4592     235.4550      14.4643      12.4394      12.4385       0.3417       2.0393
  441.8076     441.8076      17.5000     114.5517     236.4617      14.7794      12.4289      12.4497       0.3467       2.0642
  441.9600     441.9600      17.5000     114.9178     229.5539      14.2253      12.4379      12.4497       0.3328       1.9975
  442.1124     442.1124      17.5000     117.2199     212.6288      14.8451      12.4273      12.4497       0.2817       1.8139
  442.2648     442.2648      17.5000     120.1989     202.0884      14.3990      12.4064      12.4024       0.2263       1.6813
  442.4172     442.4172      17.5000     121.5499     196.5096      13.2164      12.4183      12.4027       0.1902       1.6167
  442.5696     442.5696      17.5000     121.1972     197.0070      12.0456      12.4168      12.4024       0.1955       1.6255
  442.7220     442.7220      17.5000     121.0869     208.8790      11.6764      12.4498      12.4269       0.2469       1.7250
  442.8744     442.8744      17.5000     123.2668     234.5976      13.3862      12.4482      12.4266       0.3093       1.9032
  443.0268     443.0268      17.5000     127.4719     267.0978      13.1522      12.4379      12.4385       0.3525       2.0953
  443.1792     443.1792      17.5000     127.4164     285.9391      14.9531      12.4482      12.4381       0.3761       2.2441
  443.3316     443.3316      17.5000     124.9204     282.9952      14.0764      12.4482      12.4497       0.3790       2.2654
  443.4840     443.4840      17.5000     124.1621     265.2763      14.7562      12.4482      12.4381       0.3597       2.1365
  443.6364     443.6364      17.5000     125.1602     251.1530      12.0450      12.4482      12.4381       0.3348       2.0067
  443.7888     443.7888      17.5000     127.0724     246.7299      11.5800      12.4498      12.4379       0.3195       1.9416
  443.9412     443.9412      17.5000     129.8998     249.8681      13.9646      12.4498      12.4497       0.3148       1.9235
  444.0936     444.0936      17.5000     133.1747     254.8362      15.1914      12.4379      12.4497       0.3121       1.9135
  444.2460     444.2460      17.5000     135.4324     257.2943      15.8495      12.4064      12.4502       0.3084       1.8998
  444.3984     444.3984      17.5000     135.9857     260.9225      14.5694      12.4064      12.4497       0.3135       1.9187
  444.5508     444.5508      17.5000     135.7100     269.3316      14.7240      12.4064      12.4381       0.3299       1.9846
  444.7032     444.7032      17.5000     135.7011     280.6992      15.6956      12.4273      12.4381       0.3475       2.0685
  444.8556     444.8556      17.5000     135.8031     286.7270      15.8265      12.4168      12.4381       0.3554       2.1113
  445.0080     445.0080      17.5000     135.5241     285.8708      16.9349      12.4064      12.4266       0.3550       2.1094
  445.1604     445.1604      17.5000     134.5667     280.8037      14.3051      12.4273      12.4266       0.3509       2.0867
  445.3128     445.3128      17.5000     132.7471     276.5623      12.5703      12.4379      12.4266       0.3503       2.0834
  445.4652     445.4652      17.5000     130.2351     271.9719       9.7855      12.4064      12.4381       0.3512       2.0883
  445.6176     445.6176      17.5000     128.1745     265.4476      10.2601      12.3976      12.4500       0.3480       2.0710
  445.7700     445.7700      17.5000     127.0780     261.4120      10.7599      12.3961      12.4617       0.3453       2.0571
  445.9224     445.9224      17.5000     127.3480     258.6702      12.9540      12.3976      12.4621       0.3400       2.0312
  446.0748     446.0748      17.5000     128.8317     259.7766      14.6365      12.3750      12.4738       0.3369       2.0164
  446.2272     446.2272      17.5000     129.4339     266.4924      15.2409      12.3661      12.4621       0.3456       2.0589
  446.3796     446.3796      17.5000     129.4393     274.7870      16.0671      12.2705      12.4617       0.3574       2.1229
  446.5320     446.5320      17.5000     129.9883     289.3680      15.9918      12.3650      12.4617       0.3736       2.2261
  446.6844     446.6844      17.5000     131.2023     305.5005      16.5187      12.4394      12.4621       0.3869       2.3285
  446.8368     446.8368      17.5000     132.0822     312.5099      15.4209      12.4498      12.4621       0.3913       2.3660
  446.9892     446.9892      17.5000     132.0526     309.7003      14.6548      12.4379      12.4497       0.3889       2.3453
  447.1416     447.1416      17.5000     131.5393     301.1227      14.8134      12.4394      12.4385       0.3821       2.2892
  447.2940     447.2940      17.5000     130.0752     289.4232      16.0176      12.4379      12.4381       0.3734       2.2250
  447.4464     447.4464      17.5000     127.3025     275.4157      18.3057      12.4275      12.4381       0.3642       2.1635
  447.5988     447.5988      17.5000     124.1378     262.6727      18.9083      12.4290      12.4506       0.3562       2.1160
  447.7512     447.7512      17.5000     122.6693     250.5212      18.3017      12.4275      12.4500       0.3423       2.0422
  447.9036     447.9036      17.5000     121.9106     243.7938      17.4584      12.4171      12.4381       0.3333       1.9998
  448.0560     448.0560      17.5000     121.0205     242.1673      16.6184      12.4290      12.4027       0.3336       2.0010
  448.2084     448.2084      17.5000     120.7502     245.2515      14.9896      12.4484      12.4381       0.3400       2.0311
  448.3608     448.3608      17.5000     120.9460     247.2570      13.5984      12.4482      12.4266       0.3427       2.0444
  448.5132     448.5132      17.5000     120.9890     248.2001      13.0467      12.4589      12.4266       0.3442       2.0514
  448.6656     448.6656      17.5000     121.2888     251.6070      13.5463      12.4589      12.4381       0.3486       2.0744
  448.8180     448.8180      17.5000     122.1530     254.5988      14.7022      12.4693      12.4502       0.3505       2.0843
  448.9704     448.9704      17.5000     123.6657     256.0594      15.0430      12.4708      12.4385       0.3479       2.0706
  449.1228     449.1228      17.5000     125.7085     258.8394      15.0163      12.4693      12.4617       0.3457       2.0590
  449.2752     449.2752      17.5000     127.8758     261.0186      16.0678      12.4693      12.4381       0.3421       2.0412
  449.4276     449.4276      17.5000     128.6501     256.1196      17.2244      12.4482      12.4497       0.3313       1.9908
  449.5800     449.5800      17.5000     128.1693     243.0218      20.1428      12.4587      12.4497       0.3073       1.8961
  449.7324     449.7324      17.5000     126.5244     237.1055      20.4858      12.4482      12.4738       0.3009       1.8740
  449.8848     449.8848      17.5000     124.4068     241.7990      20.1006      12.4379      12.4497       0.3200       1.9436
  450.0372     450.0372      17.5000     127.9487     251.1787      15.9986      12.4275      12.4621       0.3248       1.9631
  450.1896     450.1896      17.5000     134.3868     254.3365      13.9467      12.4275      12.4497       0.3063       1.8926
  450.3420     450.3420      17.5000     138.5730     249.8712      11.5052      12.4379      12.4497       0.2779       1.8032
