~VERSION INFORMATION
VERS.           2.0   :CWLS Log ASCII Standard - VERSION 2.0
WRAP.           NO    :One Line per depth step
PROD.  Schlumberger   :LAS Producer
PROG.  DLIS to ASCII 2.3                               :LAS Program name and version
CREA.        2020/03/20 13:20                          :LAS Creation date {YYYY/MM/DD hh:mm}
DLIS_CREA.  2020-Feb-20 13:36                          :DLIS Creation date and time {YYYY-MMM-DD hh:mm}
SOURCE.     Esso_BTWW2PH_S1R1_SonicScanner_220m_1352m_Processed Results DLIS.dlis  :DLIS File Name
FILE-ID.     West Barracouta W2 Pilot Hole             :File Identification Number
#--------------------------------------------------
~WELL INFORMATION
#MNEM.UNIT      DATA             DESCRIPTION
#---- ------ --------------   -----------------------------
STRT .M       220.0656       :START DEPTH     
STOP .M      1352.8548       :STOP DEPTH     
STEP .M         0.1524       :STEP     
NULL .          -999.25      :NULL VALUE
COMP .        Esso Australia Pty Ltd                   :COMPANY
WELL .        West Barracouta W2 Pilot Hole            :WELL
FLD  .        West Barracouta                          :FIELD
LOC  .                                                 :LOCATION
CNTY .                                                 :COUNTY
STAT .        Victoria                                 :STATE
CTRY .        Australia                                :COUNTRY
API  .                                                 :API NUMBER
UWI  .                                                 :UNIQUE WELL ID
DATE .        13-Feb-2020                              :LOG DATE {DD-MMM-YYYY}
SRVC .        Schlumberger                             :SERVICE COMPANY
LATI .DEG     38° 19' 4.505" S                        :LATITUDE
LONG .DEG     147° 36' 57.772" E                      :LONGITUDE
GDAT .                                                 :GeoDetic Datum
#-----------------------------------------------------------------------------
~PARAMETER INFORMATION
#MNEM.UNIT    VALUE                      DESCRIPTION
#---- -----   --------------------       ------------------------
RUN  .          S1R1                     :RUN NUMBER
PDAT .        MSL                        :Permanent Datum
EPD  .M           0.000000               :Elevation of Permanent Datum above Mean Sea Level
LMF  .          DF                       :Logging Measured From (Name of Logging Elevation Reference)
APD  .M          46.400002               :Elevation of Depth Reference (LMF) above Permanent Datum
#-----------------------------------------------------------------------------
~CURVE INFORMATION
#MNEM.UNIT   API CODE                                  DESCRIPTION
#---- -----  --------                                  -----------------------
MD   .M                                                :DEPTH (BOREHOLE) {F10.4}
MD   .M                                                : {F13.4}
BS   .IN                                               :Bit Size {F13.4}
DTCO .US/F                                             :Compressional slowness {F13.4}
DTSH .US/F                                             :Shear slowness {F13.4}
GR_EDTC.GAPI                                           :Gamma Ray {F13.4}
HD1_PPC1.IN                                            :PPC1 Hole Diameter 1 {F13.4}
HD2_PPC1.IN                                            :PPC1 Hole Diameter 2 {F13.4}
PR   .UNITLESS                                         :Possion's Ratio {F13.4}
VPVS .UNITLESS                                         :VpVs Ratio {F13.4}
#-----------------------------------------------------------------------------
# 
#      MD         MD           BS           DTCO         DTSH       GR_EDTC      HD1_PPC1     HD2_PPC1       PR           VPVS
#
~A  
# ...
  748.1316     748.1316       9.5000     101.5136     200.8474      29.4987       9.5206       9.5875       0.3284       1.9785
  748.2840     748.2840       9.5000     105.8822     218.9434      32.4392       9.5206       9.5875       0.3474       2.0678
  748.4364     748.4364       9.5000     112.3292     244.9363      39.2370       9.5428       9.5875       0.3668       2.1805
  748.5888     748.5888       9.5000     116.9285     261.1554      42.2674       9.5094       9.5875       0.3746       2.2335
  748.7412     748.7412       9.5000     118.3805     266.6847      43.7541       9.5316       9.5875       0.3773       2.2528
  748.8936     748.8936       9.5000     116.6006     265.1273      44.0925       9.5316       9.5875       0.3801       2.2738
  749.0460     749.0460       9.5000     110.9967     255.2506      41.3914       9.5316       9.6127       0.3834       2.2996
  749.1984     749.1984       9.5000     100.8803     231.5440      37.3831       9.5428       9.6004       0.3829       2.2952
  749.3508     749.3508       9.5000      90.0995     197.6661      29.4914       9.5206       9.5875       0.3689       2.1939
  749.5032     749.5032       9.5000      84.1647     166.3654      23.7308       9.5094       9.5875       0.3280       1.9767
  749.6556     749.6556       9.5000      82.1723     152.9582      19.8197       9.5204       9.6004       0.2972       1.8614
  749.8080     749.8080       9.5000      82.1815     151.9822      19.2104       9.5316       9.5875       0.2934       1.8493
  749.9604     749.9604       9.5000      84.6434     158.8154      18.4479       9.5428       9.5875       0.3016       1.8763
  750.1128     750.1128       9.5000      88.0219     169.4563      21.1180       9.5206       9.6004       0.3152       1.9252
  750.2652     750.2652       9.5000      91.0485     179.8630      23.9782       9.5204       9.5875       0.3277       1.9755
  750.4176     750.4176       9.5000      93.5662     187.9558      25.0414       9.5316       9.5875       0.3353       2.0088
  750.5700     750.5700       9.5000      95.6594     194.8984      25.3105       9.5206       9.5747       0.3413       2.0374
  750.7224     750.7224       9.5000      97.8638     202.7113      25.9410       9.5094       9.5875       0.3480       2.0714
  750.8748     750.8748       9.5000     100.2427     212.7392      28.2194       9.5204       9.5875       0.3573       2.1222
  751.0272     751.0272       9.5000     102.0407     222.0101      31.3769       9.5094       9.5875       0.3661       2.1757
  751.1796     751.1796       9.5000     103.1027     226.8774      33.2856       9.5206       9.5752       0.3699       2.2005
  751.3320     751.3320       9.5000     103.4570     226.1377      33.9500       9.5316       9.5624       0.3676       2.1858
  751.4844     751.4844       9.5000     103.3110     223.8538      30.7684       9.5316       9.5624       0.3647       2.1668
  751.6368     751.6368       9.5000     103.2187     222.1044      28.7397       9.5206       9.5624       0.3623       2.1518
  751.7892     751.7892       9.5000     103.8867     224.5329      29.2246       9.5206       9.5495       0.3638       2.1613
  751.9416     751.9416       9.5000     104.8580     227.3294      31.8897       9.5094       9.5372       0.3649       2.1680
  752.0940     752.0940       9.5000     105.5464     229.4892      33.2981       9.5206       9.5372       0.3659       2.1743
  752.2464     752.2464       9.5000     105.5375     230.0477      32.4818       9.5316       9.5500       0.3667       2.1798
  752.3988     752.3988       9.5000     104.6910     231.2634      30.4810       9.5318       9.5500       0.3711       2.2090
  752.5512     752.5512       9.5000     103.1741     232.2866      27.8553       9.5206       9.5372       0.3771       2.2514
  752.7036     752.7036       9.5000     101.4192     232.9293      27.5196       9.5206       9.5500       0.3830       2.2967
  752.8560     752.8560       9.5000     100.2464     236.4569      27.7474       9.5318       9.5372       0.3904       2.3588
  753.0084     753.0084       9.5000      99.9653     244.6071      27.5674       9.5318       9.5372       0.3997       2.4469
  753.1608     753.1608       9.5000     100.2497     251.3524      26.5945       9.5428       9.5248       0.4054       2.5073
  753.3132     753.3132       9.5000     101.9825     254.9434      26.7593       9.5318       9.5372       0.4048       2.4999
  753.4656     753.4656       9.5000     104.5900     257.0161      29.3715       9.5318       9.5372       0.4008       2.4574
  753.6180     753.6180       9.5000     107.1774     257.0948      31.2857       9.5428       9.5372       0.3948       2.3988
  753.7704     753.7704       9.5000     108.1193     251.7735      31.9222       9.5428       9.5372       0.3869       2.3287
  753.9228     753.9228       9.5000     108.7020     243.9727      29.0368       9.5316       9.5372       0.3762       2.2444
  754.0752     754.0752       9.5000     109.9419     239.8974      29.5667       9.5318       9.5372       0.3671       2.1820
  754.2276     754.2276       9.5000     111.7463     245.3275      34.6098       9.5540       9.5243       0.3691       2.1954
  754.3800     754.3800       9.5000     113.6242     261.7317      40.9519       9.5206       9.5243       0.3839       2.3035
  754.5324     754.5324       9.5000     114.2319     278.0011      40.8424       9.5206       9.5243       0.3984       2.4337
  754.6848     754.6848       9.5000     112.3487     283.9330      38.1074       9.5428       9.5243       0.4072       2.5272
  754.8372     754.8372       9.5000     108.3968     275.5765      37.4751       9.5206       9.4996       0.4085       2.5423
  754.9896     754.9896       9.5000     105.3965     258.7397      35.8663       9.5095       9.5243       0.4005       2.4549
  755.1420     755.1420       9.5000     105.4161     241.8475      33.2254       9.5206       9.5119       0.3827       2.2942
  755.2944     755.2944       9.5000     108.0640     241.2337      31.8856       9.5095       9.4996       0.3745       2.2323
  755.4468     755.4468       9.5000     111.7114     255.5037      35.5011       9.5206       9.5243       0.3818       2.2872
  755.5992     755.5992       9.5000     114.0829     266.4188      42.1213       9.5318       9.5243       0.3877       2.3353
  755.7516     755.7516       9.5000     111.1200     260.6497      39.6627       9.5428       9.5372       0.3889       2.3457
  755.9040     755.9040       9.5000      99.2787     237.9405      36.4667       9.5206       9.5372       0.3946       2.3967
  756.0564     756.0564       9.5000      89.2153     212.7378      28.2397       9.5207       9.5119       0.3933       2.3845
  756.2088     756.2088       9.5000      84.8311     199.7347      25.5184       9.5206       9.5119       0.3900       2.3545
  756.3612     756.3612       9.5000      83.8880     197.5142      20.1573       9.5206       9.5243       0.3900       2.3545
  756.5136     756.5136       9.5000      85.9334     197.7509      17.6020       9.5206       9.5119       0.3836       2.3012
  756.6660     756.6660       9.5000      89.8005     200.4873      17.2875       9.5318       9.5243       0.3745       2.2326
  756.8184     756.8184       9.5000      93.0181     205.3905      21.7471       9.5206       9.5119       0.3710       2.2081
  756.9708     756.9708       9.5000      95.0913     209.4691      24.2278       9.5206       9.5119       0.3702       2.2028
  757.1232     757.1232       9.5000      97.8620     209.9207      27.0227       9.5206       9.5119       0.3612       2.1451
  757.2756     757.2756       9.5000     100.3650     214.0167      24.5658       9.5318       9.5119       0.3590       2.1324
  757.4280     757.4280       9.5000     102.5803     219.7063      25.5774       9.5318       9.4996       0.3606       2.1418
  757.5804     757.5804       9.5000     104.3148     224.4230      23.8166       9.5316       9.5119       0.3622       2.1514
