~VERSION INFORMATION
VERS.           2.0   :CWLS Log ASCII Standard - VERSION 2.0
WRAP.           NO    :One Line per depth step
PROD.  Schlumberger   :LAS Producer
PROG.  DLIS to ASCII 2.3                               :LAS Program name and version
CREA.        2020/03/20 13:20                          :LAS Creation date {YYYY/MM/DD hh:mm}
DLIS_CREA.  2020-Feb-20 13:36                          :DLIS Creation date and time {YYYY-MMM-DD hh:mm}
SOURCE.     Esso_BTWW2PH_S1R1_SonicScanner_220m_1352m_Processed Results DLIS.dlis  :DLIS File Name
FILE-ID.     West Barracouta W2 Pilot Hole             :File Identification Number
#--------------------------------------------------
~WELL INFORMATION
#MNEM.UNIT      DATA             DESCRIPTION
#---- ------ --------------   -----------------------------
STRT .M       220.0656       :START DEPTH     
STOP .M      1352.8548       :STOP DEPTH     
STEP .M         0.1524       :STEP     
NULL .          -999.25      :NULL VALUE
COMP .        Esso Australia Pty Ltd                   :COMPANY
WELL .        West Barracouta W2 Pilot Hole            :WELL
FLD  .        West Barracouta                          :FIELD
LOC  .                                                 :LOCATION
CNTY .                                                 :COUNTY
STAT .        Victoria                                 :STATE
CTRY .        Australia                                :COUNTRY
API  .                                                 :API NUMBER
UWI  .                                                 :UNIQUE WELL ID
DATE .        13-Feb-2020                              :LOG DATE {DD-MMM-YYYY}
SRVC .        Schlumberger                             :SERVICE COMPANY
LATI .DEG     38° 19' 4.505" S                        :LATITUDE
LONG .DEG     147° 36' 57.772" E                      :LONGITUDE
GDAT .                                                 :GeoDetic Datum
#-----------------------------------------------------------------------------
~PARAMETER INFORMATION
#MNEM.UNIT    VALUE                      DESCRIPTION
#---- -----   --------------------       ------------------------
RUN  .          S1R1                     :RUN NUMBER
PDAT .        MSL                        :Permanent Datum
EPD  .M           0.000000               :Elevation of Permanent Datum above Mean Sea Level
LMF  .          DF                       :Logging Measured From (Name of Logging Elevation Reference)
APD  .M          46.400002               :Elevation of Depth Reference (LMF) above Permanent Datum
#-----------------------------------------------------------------------------
~CURVE INFORMATION
#MNEM.UNIT   API CODE                                  DESCRIPTION
#---- -----  --------                                  -----------------------
MD   .M                                                :DEPTH (BOREHOLE) {F10.4}
MD   .M                                                : {F13.4}
BS   .IN                                               :Bit Size {F13.4}
DTCO .US/F                                             :Compressional slowness {F13.4}
DTSH .US/F                                             :Shear slowness {F13.4}
GR_EDTC.GAPI                                           :Gamma Ray {F13.4}
HD1_PPC1.IN                                            :PPC1 Hole Diameter 1 {F13.4}
HD2_PPC1.IN                                            :PPC1 Hole Diameter 2 {F13.4}
PR   .UNITLESS                                         :Possion's Ratio {F13.4}
VPVS .UNITLESS                                         :VpVs Ratio {F13.4}
#-----------------------------------------------------------------------------
# 
#      MD         MD           BS           DTCO         DTSH       GR_EDTC      HD1_PPC1     HD2_PPC1       PR           VPVS
#
~A  
# ...
  373.6848     373.6848      17.5000    -999.2500     269.1957      14.5033      12.4586      12.4376    -999.2500    -999.2500
  373.8372     373.8372      17.5000    -999.2500     266.9401      16.1499      12.4379      12.4497    -999.2500    -999.2500
  373.9896     373.9896      17.5000    -999.2500     254.7407      15.8045      12.4379      12.4497    -999.2500    -999.2500
  374.1420     374.1420      17.5000    -999.2500     244.7320      14.5765      12.4379      12.4617    -999.2500    -999.2500
  374.2944     374.2944      17.5000    -999.2500     239.2779      13.3184      12.4275      12.4617    -999.2500    -999.2500
  374.4468     374.4468      17.5000    -999.2500     236.7325      14.7732      12.4273      12.4738    -999.2500    -999.2500
  374.5992     374.5992      17.5000    -999.2500     238.1332      14.0205      12.4379      12.4497    -999.2500    -999.2500
  374.7516     374.7516      17.5000    -999.2500     238.8010      13.4537      12.4379      12.4738    -999.2500    -999.2500
  374.9040     374.9040      17.5000    -999.2500     240.5879      11.2846      12.4394      12.4621    -999.2500    -999.2500
  375.0564     375.0564      17.5000    -999.2500     247.0296      12.7710      12.4379      12.4617    -999.2500    -999.2500
  375.2088     375.2088      17.5000    -999.2500     253.5831      14.2984      12.4379      12.4617    -999.2500    -999.2500
  375.3612     375.3612      17.5000    -999.2500     254.0263      15.3579      12.4379      12.4738    -999.2500    -999.2500
  375.5136     375.5136      17.5000    -999.2500     247.5271      16.0488      12.4379      12.4617    -999.2500    -999.2500
  375.6660     375.6660      17.5000    -999.2500     239.3500      14.3237      12.4394      12.4621    -999.2500    -999.2500
  375.8184     375.8184      17.5000    -999.2500     229.8623      15.2361      12.4379      12.4617    -999.2500    -999.2500
  375.9708     375.9708      17.5000    -999.2500     217.4808      14.5469      12.4484      12.4617    -999.2500    -999.2500
  376.1232     376.1232      17.5000    -999.2500     210.6887      16.4704      12.4379      12.4617    -999.2500    -999.2500
  376.2756     376.2756      17.5000    -999.2500     210.9797      14.2741      12.4484      12.4617    -999.2500    -999.2500
  376.4280     376.4280      17.5000    -999.2500     216.4175      13.7062      12.4379      12.4502    -999.2500    -999.2500
  376.5804     376.5804      17.5000    -999.2500     224.6532      15.3095      12.4379      12.4502    -999.2500    -999.2500
  376.7328     376.7328      17.5000    -999.2500     235.3158      16.9144      12.4273      12.4500    -999.2500    -999.2500
  376.8852     376.8852      17.5000    -999.2500     247.1195      18.9023      12.4379      12.4497    -999.2500    -999.2500
  377.0376     377.0376      17.5000    -999.2500     258.5290      17.2487      12.4379      12.4617    -999.2500    -999.2500
  377.1900     377.1900      17.5000    -999.2500     262.7699      18.0621      12.4273      12.4738    -999.2500    -999.2500
  377.3424     377.3424      17.5000    -999.2500     261.0585      15.5075      12.4273      12.4617    -999.2500    -999.2500
  377.4948     377.4948      17.5000    -999.2500     260.3003      14.4488      12.4379      12.4497    -999.2500    -999.2500
  377.6472     377.6472      17.5000    -999.2500     261.4907      14.2515      12.4379      12.4497    -999.2500    -999.2500
  377.7996     377.7996      17.5000    -999.2500     266.4046      14.3492      12.4379      12.4497    -999.2500    -999.2500
  377.9520     377.9520      17.5000    -999.2500     272.1638      15.0152      12.4482      12.4266    -999.2500    -999.2500
  378.1044     378.1044      17.5000    -999.2500     275.7811      13.5302      12.4693      12.4266    -999.2500    -999.2500
  378.2568     378.2568      17.5000    -999.2500     275.3514      14.2456      12.4587      12.4266    -999.2500    -999.2500
  378.4092     378.4092      17.5000    -999.2500     267.2322      13.8013      12.4693      12.4381    -999.2500    -999.2500
  378.5616     378.5616      17.5000    -999.2500     259.4754      15.5914      12.4796      12.4381    -999.2500    -999.2500
  378.7140     378.7140      17.5000    -999.2500     257.8776      15.6153      12.4796      12.4381    -999.2500    -999.2500
  378.8664     378.8664      17.5000    -999.2500     261.5912      16.9281      12.4796      12.4497    -999.2500    -999.2500
  379.0188     379.0188      17.5000    -999.2500     264.6082      15.7850      12.4693      12.4497    -999.2500    -999.2500
  379.1712     379.1712      17.5000    -999.2500     264.3513      17.2647      12.4693      12.4497    -999.2500    -999.2500
  379.3236     379.3236      17.5000    -999.2500     266.1440      15.1875      12.4693      12.4497    -999.2500    -999.2500
  379.4760     379.4760      17.5000    -999.2500     274.6108      15.5812      12.4693      12.4617    -999.2500    -999.2500
  379.6284     379.6284      17.5000    -999.2500     284.2164      15.0382      12.4693      12.4738    -999.2500    -999.2500
  379.7808     379.7808      17.5000    -999.2500     288.6234      16.4845      12.4484      12.4497    -999.2500    -999.2500
  379.9332     379.9332      17.5000    -999.2500     284.9621      15.6468      12.4484      12.4617    -999.2500    -999.2500
  380.0856     380.0856      17.5000    -999.2500     277.4275      15.9806      12.4379      12.4617    -999.2500    -999.2500
  380.2380     380.2380      17.5000    -999.2500     267.7569      14.8792      12.4484      12.4497    -999.2500    -999.2500
  380.3904     380.3904      17.5000    -999.2500     260.7786      14.8055      12.4484      12.4381    -999.2500    -999.2500
  380.5428     380.5428      17.5000    -999.2500     258.9614      13.8075      12.4589      12.4497    -999.2500    -999.2500
  380.6952     380.6952      17.5000    -999.2500     259.3823      16.4954      12.4693      12.4381    -999.2500    -999.2500
  380.8476     380.8476      17.5000    -999.2500     256.9433      17.6060      12.4589      12.4381    -999.2500    -999.2500
  381.0000     381.0000      17.5000    -999.2500     252.2254      17.4085      12.4693      12.4266    -999.2500    -999.2500
  381.1524     381.1524      17.5000    -999.2500     247.8700      15.2145      12.4394      12.4269    -999.2500    -999.2500
  381.3048     381.3048      17.5000    -999.2500     242.8705      13.7338      12.4379      12.4266    -999.2500    -999.2500
  381.4572     381.4572      17.5000    -999.2500     236.3162      13.4627      12.4394      12.4502    -999.2500    -999.2500
  381.6096     381.6096      17.5000    -999.2500     230.1564      14.0298      12.4170      12.4617    -999.2500    -999.2500
  381.7620     381.7620      17.5000    -999.2500     225.8355      15.1636      12.4171      12.4738    -999.2500    -999.2500
  381.9144     381.9144      17.5000      98.2763     224.3981      14.6456      12.4171      12.4738       0.3820       2.2915
  382.0668     382.0668      17.5000      98.1531     225.4677      14.3246      12.4171      12.4738       0.3831       2.2971
  382.2192     382.2192      17.5000     100.2175     228.7836      13.3136      12.4379      12.4854       0.3813       2.2829
  382.3716     382.3716      17.5000     102.4603     233.5687      14.1519      12.4379      12.4854       0.3809       2.2796
  382.5240     382.5240      17.5000     104.7517     238.0850      12.5252      12.4394      12.4858       0.3800       2.2729
  382.6764     382.6764      17.5000     106.4901     239.3644      11.9341      12.4379      12.4738       0.3766       2.2478
  382.8288     382.8288      17.5000     108.3780     233.0071      11.8837      12.4379      12.4381       0.3620       2.1499
  382.9812     382.9812      17.5000     111.4260     228.9689      11.2908      12.4379      12.4145       0.3448       2.0549
  383.1336     383.1336      17.5000     115.2917     237.9750      13.2904      12.4379      12.4617       0.3467       2.0641
