~VERSION INFORMATION
VERS.           2.0   :CWLS Log ASCII Standard - VERSION 2.0
WRAP.           NO    :One Line per depth step
PROD.  Schlumberger   :LAS Producer
PROG.  DLIS to ASCII 2.3                               :LAS Program name and version
CREA.        2020/03/20 13:20                          :LAS Creation date {YYYY/MM/DD hh:mm}
DLIS_CREA.  2020-Feb-20 13:36                          :DLIS Creation date and time {YYYY-MMM-DD hh:mm}
SOURCE.     Esso_BTWW2PH_S1R1_SonicScanner_220m_1352m_Processed Results DLIS.dlis  :DLIS File Name
FILE-ID.     West Barracouta W2 Pilot Hole             :File Identification Number
#--------------------------------------------------
~WELL INFORMATION
#MNEM.UNIT      DATA             DESCRIPTION
#---- ------ --------------   -----------------------------
STRT .M       220.0656       :START DEPTH     
STOP .M      1352.8548       :STOP DEPTH     
STEP .M         0.1524       :STEP     
NULL .          -999.25      :NULL VALUE
COMP .        Esso Australia Pty Ltd                   :COMPANY
WELL .        West Barracouta W2 Pilot Hole            :WELL
FLD  .        West Barracouta                          :FIELD
LOC  .                                                 :LOCATION
CNTY .                                                 :COUNTY
STAT .        Victoria                                 :STATE
CTRY .        Australia                                :COUNTRY
API  .                                                 :API NUMBER
UWI  .                                                 :UNIQUE WELL ID
DATE .        13-Feb-2020                              :LOG DATE {DD-MMM-YYYY}
SRVC .        Schlumberger                             :SERVICE COMPANY
LATI .DEG     38° 19' 4.505" S                        :LATITUDE
LONG .DEG     147° 36' 57.772" E                      :LONGITUDE
GDAT .                                                 :GeoDetic Datum
#-----------------------------------------------------------------------------
~PARAMETER INFORMATION
#MNEM.UNIT    VALUE                      DESCRIPTION
#---- -----   --------------------       ------------------------
RUN  .          S1R1                     :RUN NUMBER
PDAT .        MSL                        :Permanent Datum
EPD  .M           0.000000               :Elevation of Permanent Datum above Mean Sea Level
LMF  .          DF                       :Logging Measured From (Name of Logging Elevation Reference)
APD  .M          46.400002               :Elevation of Depth Reference (LMF) above Permanent Datum
#-----------------------------------------------------------------------------
~CURVE INFORMATION
#MNEM.UNIT   API CODE                                  DESCRIPTION
#---- -----  --------                                  -----------------------
MD   .M                                                :DEPTH (BOREHOLE) {F10.4}
MD   .M                                                : {F13.4}
BS   .IN                                               :Bit Size {F13.4}
DTCO .US/F                                             :Compressional slowness {F13.4}
DTSH .US/F                                             :Shear slowness {F13.4}
GR_EDTC.GAPI                                           :Gamma Ray {F13.4}
HD1_PPC1.IN                                            :PPC1 Hole Diameter 1 {F13.4}
HD2_PPC1.IN                                            :PPC1 Hole Diameter 2 {F13.4}
PR   .UNITLESS                                         :Possion's Ratio {F13.4}
VPVS .UNITLESS                                         :VpVs Ratio {F13.4}
#-----------------------------------------------------------------------------
# 
#      MD         MD           BS           DTCO         DTSH       GR_EDTC      HD1_PPC1     HD2_PPC1       PR           VPVS
#
~A  
  220.0656     220.0656      17.5000    -999.2500    -999.2500      14.0960      12.4796      12.4381    -999.2500    -999.2500
  220.2180     220.2180      17.5000    -999.2500    -999.2500      14.4890      12.4796      12.4502    -999.2500    -999.2500
  220.3704     220.3704      17.5000    -999.2500    -999.2500      15.0144      12.4691      12.4381    -999.2500    -999.2500
  220.5228     220.5228      17.5000    -999.2500    -999.2500      17.2189      12.4693      12.4381    -999.2500    -999.2500
  220.6752     220.6752      17.5000    -999.2500    -999.2500      16.7740      12.4587      12.4497    -999.2500    -999.2500
  220.8276     220.8276      17.5000    -999.2500    -999.2500      17.0801      12.4587      12.4502    -999.2500    -999.2500
  220.9800     220.9800      17.5000    -999.2500    -999.2500      17.1383      12.4484      12.4617    -999.2500    -999.2500
  221.1324     221.1324      17.5000    -999.2500    -999.2500      17.0847      12.4484      12.4617    -999.2500    -999.2500
  221.2848     221.2848      17.5000    -999.2500    -999.2500      14.7739      12.4484      12.4617    -999.2500    -999.2500
  221.4372     221.4372      17.5000    -999.2500    -999.2500      13.6154      12.4379      12.4381    -999.2500    -999.2500
  221.5896     221.5896      17.5000    -999.2500    -999.2500      12.8262      12.4379      12.4617    -999.2500    -999.2500
  221.7420     221.7420      17.5000    -999.2500    -999.2500      14.2939      12.4379      12.4617    -999.2500    -999.2500
  221.8944     221.8944      17.5000    -999.2500    -999.2500      13.4008      12.4379      12.4617    -999.2500    -999.2500
  222.0468     222.0468      17.5000    -999.2500    -999.2500      14.3232      12.4379      12.4502    -999.2500    -999.2500
  222.1992     222.1992      17.5000    -999.2500    -999.2500      13.9144      12.4379      12.4381    -999.2500    -999.2500
  222.3516     222.3516      17.5000    -999.2500    -999.2500      14.1872      12.4379      12.4502    -999.2500    -999.2500
  222.5040     222.5040      17.5000    -999.2500    -999.2500      14.7635      12.4484      12.4497    -999.2500    -999.2500
  222.6564     222.6564      17.5000    -999.2500    -999.2500      13.5638      12.4273      12.4617    -999.2500    -999.2500
  222.8088     222.8088      17.5000    -999.2500    -999.2500      13.3971      12.4484      12.4497    -999.2500    -999.2500
  222.9612     222.9612      17.5000    -999.2500    -999.2500      12.5568      12.4484      12.4738    -999.2500    -999.2500
  223.1136     223.1136      17.5000    -999.2500    -999.2500      12.3308      12.4484      12.4617    -999.2500    -999.2500
  223.2660     223.2660      17.5000    -999.2500    -999.2500      11.8499      12.4587      12.4502    -999.2500    -999.2500
  223.4184     223.4184      17.5000    -999.2500    -999.2500      13.4258      12.4587      12.4617    -999.2500    -999.2500
  223.5708     223.5708      17.5000    -999.2500    -999.2500      15.3764      12.4484      12.4738    -999.2500    -999.2500
  223.7232     223.7232      17.5000    -999.2500    -999.2500      17.0671      12.4484      12.4617    -999.2500    -999.2500
  223.8756     223.8756      17.5000    -999.2500    -999.2500      16.4382      12.4273      12.4738    -999.2500    -999.2500
  224.0280     224.0280      17.5000    -999.2500    -999.2500      15.2823      12.4379      12.4617    -999.2500    -999.2500
  224.1804     224.1804      17.5000    -999.2500    -999.2500      14.8598      12.4379      12.4617    -999.2500    -999.2500
  224.3328     224.3328      17.5000    -999.2500    -999.2500      13.8073      12.4379      12.4617    -999.2500    -999.2500
  224.4852     224.4852      17.5000    -999.2500    -999.2500      15.4107      12.4587      12.4854    -999.2500    -999.2500
  224.6376     224.6376      17.5000    -999.2500    -999.2500      14.7004      12.4587      12.4738    -999.2500    -999.2500
  224.7900     224.7900      17.5000    -999.2500    -999.2500      15.1472      12.4587      12.4617    -999.2500    -999.2500
  224.9424     224.9424      17.5000    -999.2500    -999.2500      14.6467      12.4691      12.4617    -999.2500    -999.2500
  225.0948     225.0948      17.5000    -999.2500    -999.2500      14.3049      12.4691      12.4617    -999.2500    -999.2500
  225.2472     225.2472      17.5000    -999.2500    -999.2500      15.0426      12.4796      12.4497    -999.2500    -999.2500
  225.3996     225.3996      17.5000    -999.2500    -999.2500      14.3339      12.4691      12.4617    -999.2500    -999.2500
  225.5520     225.5520      17.5000    -999.2500    -999.2500      14.7946      12.4691      12.4497    -999.2500    -999.2500
  225.7044     225.7044      17.5000    -999.2500    -999.2500      14.2149      12.4587      12.4617    -999.2500    -999.2500
  225.8568     225.8568      17.5000    -999.2500    -999.2500      15.7398      12.4587      12.4497    -999.2500    -999.2500
  226.0092     226.0092      17.5000    -999.2500    -999.2500      16.2783      12.4587      12.4617    -999.2500    -999.2500
  226.1616     226.1616      17.5000    -999.2500    -999.2500      16.5410      12.4587      12.4617    -999.2500    -999.2500
  226.3140     226.3140      17.5000    -999.2500 -999999.9999      16.6450      12.4587      12.4617    -999.2500    -999.2500
  226.4664     226.4664      17.5000    -999.2500     297.1691      16.1979      12.4587      12.4617    -999.2500    -999.2500
  226.6188     226.6188      17.5000    -999.2500     301.4267      15.7513      12.4587      12.4617    -999.2500    -999.2500
  226.7712     226.7712      17.5000    -999.2500     311.5850      16.1209      12.4587      12.4617    -999.2500    -999.2500
  226.9236     226.9236      17.5000    -999.2500     320.2169      19.8288      12.4587      12.4617    -999.2500    -999.2500
  227.0760     227.0760      17.5000    -999.2500     327.0113      20.7353      12.4587      12.4738    -999.2500    -999.2500
  227.2284     227.2284      17.5000    -999.2500     331.0154      19.5504      12.4484      12.4617    -999.2500    -999.2500
  227.3808     227.3808      17.5000    -999.2500     332.9175      15.6587      12.4484      12.4502    -999.2500    -999.2500
  227.5332     227.5332      17.5000    -999.2500     331.5516      14.2787      12.4484      12.4502    -999.2500    -999.2500
  227.6856     227.6856      17.5000    -999.2500     332.0828      14.1488      12.4379      12.4617    -999.2500    -999.2500
  227.8380     227.8380      17.5000    -999.2500     333.5896      14.4919      12.4273      12.4617    -999.2500    -999.2500
  227.9904     227.9904      17.5000    -999.2500     333.2869      15.4221      12.4379      12.4617    -999.2500    -999.2500
  228.1428     228.1428      17.5000    -999.2500     331.7501      15.0800      12.4484      12.4497    -999.2500    -999.2500
  228.2952     228.2952      17.5000    -999.2500     326.0837      13.6327      12.4484      12.4502    -999.2500    -999.2500
  228.4476     228.4476      17.5000    -999.2500     318.2492      12.9652      12.4484      12.4502    -999.2500    -999.2500
  228.6000     228.6000      17.5000    -999.2500     312.1864      14.0160      12.4587      12.4381    -999.2500    -999.2500
  228.7524     228.7524      17.5000    -999.2500     307.3059      17.0139      12.4796      12.4381    -999.2500    -999.2500
  228.9048     228.9048      17.5000    -999.2500     303.7852      18.7232      12.4587      12.4381    -999.2500    -999.2500
  229.0572     229.0572      17.5000    -999.2500     301.3393      17.5670      12.4693      12.4266    -999.2500    -999.2500
  229.2096     229.2096      17.5000    -999.2500     298.7787      15.3965      12.4693      12.4502    -999.2500    -999.2500
  229.3620     229.3620      17.5000    -999.2500     295.3867      12.6352      12.4693      12.4381    -999.2500    -999.2500
  229.5144     229.5144      17.5000    -999.2500     290.5440      14.1878      12.4693      12.4502    -999.2500    -999.2500
