~VERSION INFORMATION
VERS.           2.0   :CWLS Log ASCII Standard - VERSION 2.0
WRAP.           NO    :One Line per depth step
PROD.  Schlumberger   :LAS Producer
PROG.  DLIS to ASCII 2.3                               :LAS Program name and version
CREA.        2020/03/20 13:20                          :LAS Creation date {YYYY/MM/DD hh:mm}
DLIS_CREA.  2020-Feb-20 13:36                          :DLIS Creation date and time {YYYY-MMM-DD hh:mm}
SOURCE.     Esso_BTWW2PH_S1R1_SonicScanner_220m_1352m_Processed Results DLIS.dlis  :DLIS File Name
FILE-ID.     West Barracouta W2 Pilot Hole             :File Identification Number
#--------------------------------------------------
~WELL INFORMATION
#MNEM.UNIT      DATA             DESCRIPTION
#---- ------ --------------   -----------------------------
STRT .M       220.0656       :START DEPTH     
STOP .M      1352.8548       :STOP DEPTH     
STEP .M         0.1524       :STEP     
NULL .          -999.25      :NULL VALUE
COMP .        Esso Australia Pty Ltd                   :COMPANY
WELL .        West Barracouta W2 Pilot Hole            :WELL
FLD  .        West Barracouta                          :FIELD
LOC  .                                                 :LOCATION
CNTY .                                                 :COUNTY
STAT .        Victoria                                 :STATE
CTRY .        Australia                                :COUNTRY
API  .                                                 :API NUMBER
UWI  .                                                 :UNIQUE WELL ID
DATE .        13-Feb-2020                              :LOG DATE {DD-MMM-YYYY}
SRVC .        Schlumberger                             :SERVICE COMPANY
LATI .DEG     38° 19' 4.505" S                        :LATITUDE
LONG .DEG     147° 36' 57.772" E                      :LONGITUDE
GDAT .                                                 :GeoDetic Datum
#-----------------------------------------------------------------------------
~PARAMETER INFORMATION
#MNEM.UNIT    VALUE                      DESCRIPTION
#---- -----   --------------------       ------------------------
RUN  .          S1R1                     :RUN NUMBER
PDAT .        MSL                        :Permanent Datum
EPD  .M           0.000000               :Elevation of Permanent Datum above Mean Sea Level
LMF  .          DF                       :Logging Measured From (Name of Logging Elevation Reference)
APD  .M          46.400002               :Elevation of Depth Reference (LMF) above Permanent Datum
#-----------------------------------------------------------------------------
~CURVE INFORMATION
#MNEM.UNIT   API CODE                                  DESCRIPTION
#---- -----  --------                                  -----------------------
MD   .M                                                :DEPTH (BOREHOLE) {F10.4}
MD   .M                                                : {F13.4}
BS   .IN                                               :Bit Size {F13.4}
DTCO .US/F                                             :Compressional slowness {F13.4}
DTSH .US/F                                             :Shear slowness {F13.4}
GR_EDTC.GAPI                                           :Gamma Ray {F13.4}
HD1_PPC1.IN                                            :PPC1 Hole Diameter 1 {F13.4}
HD2_PPC1.IN                                            :PPC1 Hole Diameter 2 {F13.4}
PR   .UNITLESS                                         :Possion's Ratio {F13.4}
VPVS .UNITLESS                                         :VpVs Ratio {F13.4}
#-----------------------------------------------------------------------------
# 
#      MD         MD           BS           DTCO         DTSH       GR_EDTC      HD1_PPC1     HD2_PPC1       PR           VPVS
#
~A  
# ...
  517.7028     517.7028      17.5000     117.7476     298.1282      14.4111      12.4391      12.4269       0.4076       2.5319
  517.8552     517.8552      17.5000     118.6109     292.3818      13.8850      12.4375      12.4266       0.4015       2.4650
  518.0076     518.0076      17.5000     116.7317     284.3193      15.0435      12.4391      12.4269       0.3986       2.4357
  518.1600     518.1600      17.5000     115.4924     273.9389      15.2275      12.4375      12.4383       0.3919       2.3719
  518.3124     518.3124      17.5000     114.6738     264.8948      13.7280      12.4391      12.4269       0.3847       2.3100
  518.4648     518.4648      17.5000     113.9565     263.0991      12.8071      12.4375      12.4381       0.3845       2.3088
  518.6172     518.6172      17.5000     113.2525     266.1893      13.8586      12.4375      12.4266       0.3895       2.3504
  518.7696     518.7696      17.5000     109.9215     273.6289      15.0684      12.4375      12.4266       0.4038       2.4893
  518.9220     518.9220      17.5000     103.2739     268.6949      14.2253      12.4391      12.4269       0.4133       2.6018
  519.0744     519.0744      17.5000      95.1466     248.5684      13.0687      12.4375      12.4266       0.4142       2.6125
  519.2268     519.2268      17.5000      86.6181     227.5636      11.8594      12.4375      12.4266       0.4153       2.6272
  519.3792     519.3792      17.5000      84.4914     222.4530      12.5712      12.4375      12.4269       0.4157       2.6328
  519.5316     519.5316      17.5000      89.1311     228.6144      15.2274      12.4391      12.4269       0.4104       2.5649
  519.6840     519.6840      17.5000      97.2901     239.3472      16.8065      12.4391      12.4269       0.4010       2.4601
  519.8364     519.8364      17.5000     105.5958     256.9784      18.0945      12.4391      12.4390       0.3984       2.4336
  519.9888     519.9888      17.5000     115.5847     274.5023      18.9087      12.4375      12.4266       0.3922       2.3749
  520.1412     520.1412      17.5000     119.3691     286.4785      17.4878      12.4375      12.4502       0.3950       2.3999
  520.2936     520.2936      17.5000     119.2998     293.4283      15.9627      12.4375      12.4266       0.4010       2.4596
  520.4460     520.4460      17.5000     116.5991     288.8752      14.3193      12.4272      12.4387       0.4027       2.4775
  520.5984     520.5984      17.5000     111.1578     276.7142      17.0824      12.4391      12.4269       0.4038       2.4894
  520.7508     520.7508      17.5000     105.3490     263.9961      17.0828      12.4391      12.4269       0.4053       2.5059
  520.9032     520.9032      17.5000     102.9449     256.8380      15.6186      12.4391      12.4390       0.4043       2.4949
  521.0556     521.0556      17.5000     105.7610     260.3573      14.0390      12.4391      12.4383       0.4012       2.4618
  521.2080     521.2080      17.5000     112.6112     270.0899      14.0641      12.4287      12.4269       0.3948       2.3984
  521.3604     521.3604      17.5000     122.5368     279.6919      14.6733      12.4270      12.4387       0.3812       2.2825
  521.5128     521.5128      17.5000     132.6939     282.0481      14.7525      12.4287      12.4390       0.3579       2.1256
  521.6652     521.6652      17.5000     140.1807     283.7542      16.4099      12.4272      12.4381       0.3386       2.0242
  521.8176     521.8176      17.5000     143.0558     288.0823      18.3034      12.4181      12.4385       0.3363       2.0138
  521.9700     521.9700      17.5000     140.7043     292.9995      18.4356      12.4287      12.4390       0.3501       2.0824
  522.1224     522.1224      17.5000     134.0365     292.5220      18.4888      12.4391      12.4266       0.3671       2.1824
  522.2748     522.2748      17.5000     129.0585     272.9760      17.6474      12.4166      12.4381       0.3561       2.1151
  522.4272     522.4272      17.5000     124.7462     235.7966      17.0671      12.4272      12.4266       0.3057       1.8902
  522.5796     522.5796      17.5000     121.0497     214.8247      14.3307      12.4375      12.4387       0.2674       1.7747
  522.7320     522.7320      17.5000     118.7318     213.2408      13.5403      12.4287      12.4390       0.2753       1.7960
  522.8844     522.8844      17.5000     118.8800     224.4646      12.9624      12.4287      12.4269       0.3051       1.8882
  523.0368     523.0368      17.5000     120.5216     241.1285      13.4103      12.4287      12.4390       0.3335       2.0007
  523.1892     523.1892      17.5000     122.1083     258.4499      13.8333      12.4287      12.4269       0.3563       2.1166
  523.3416     523.3416      17.5000     123.9754     274.8272      13.8075      12.4181      12.4390       0.3723       2.2168
  523.4940     523.4940      17.5000     126.4854     288.9718      15.5294      12.4181      12.4390       0.3815       2.2846
  523.6464     523.6464      17.5000     128.9036     296.4670      17.3960      12.4063      12.4502       0.3834       2.2999
  523.7988     523.7988      17.5000     130.8931     299.0802      18.6312      12.4076      12.4390       0.3815       2.2849
  523.9512     523.9512      17.5000     132.7085     297.0641      17.8816      12.4166      12.4266       0.3753       2.2385
  524.1036     524.1036      17.5000     133.9579     293.0750      18.1957      12.4063      12.4502       0.3680       2.1878
  524.2560     524.2560      17.5000     132.6709     292.5800      19.0643      12.4166      12.4381       0.3706       2.2053
  524.4084     524.4084      17.5000     129.8249     293.3629      20.1427      12.3972      12.4506       0.3782       2.2597
  524.5608     524.5608      17.5000     126.2377     291.5206      18.6200      12.4181      12.4627       0.3846       2.3093
  524.7132     524.7132      17.5000     122.3886     288.0134      16.2529      12.4063      12.4502       0.3898       2.3533
  524.8656     524.8656      17.5000     119.5248     289.0182      15.3318      12.4078      12.4506       0.3968       2.4181
  525.0180     525.0180      17.5000     117.0906     294.5424      16.3377      12.4076      12.4506       0.4062       2.5155
  525.1704     525.1704      17.5000     115.0561     297.4294      17.3877      12.4061      12.4502       0.4120       2.5851
  525.3228     525.3228      17.5000     112.4692     291.1701      16.5727      12.4076      12.4506       0.4123       2.5889
  525.4752     525.4752      17.5000     110.6887     278.0791      15.1972      12.3972      12.4506       0.4059       2.5123
  525.6276     525.6276      17.5000     110.8563     267.3992      16.5166      12.4181      12.4506       0.3962       2.4121
  525.7800     525.7800      17.5000     114.0491     265.0938      16.9131      12.4181      12.4506       0.3864       2.3244
  525.9324     525.9324      17.5000     120.1428     267.0605      15.8359      12.4076      12.4506       0.3731       2.2229
  526.0848     526.0848      17.5000     126.4892     269.7256      15.7805      12.4181      12.4506       0.3590       2.1324
  526.2372     526.2372      17.5000     131.5321     272.6768      18.2511      12.3972      12.4621       0.3484       2.0731
  526.3896     526.3896      17.5000     135.3951     272.7152      20.3678      12.3869      12.4502       0.3364       2.0142
  526.5420     526.5420      17.5000     138.0485     268.9887      17.7898      12.4076      12.4506       0.3212       1.9485
  526.6944     526.6944      17.5000     139.3467     265.0385      14.7652      12.4076      12.4506       0.3090       1.9020
  526.8468     526.8468      17.5000     139.0757     264.0648      13.7202      12.4181      12.4506       0.3081       1.8987
  526.9992     526.9992      17.5000     137.7003     263.9790      16.6667      12.4181      12.4627       0.3131       1.9171
  527.1516     527.1516      17.5000     135.8055     259.6033      17.6151      12.3972      12.4621       0.3116       1.9116
