~VERSION INFORMATION
VERS.           2.0   :CWLS Log ASCII Standard - VERSION 2.0
WRAP.           NO    :One Line per depth step
PROD.  Schlumberger   :LAS Producer
PROG.  DLIS to ASCII 2.3                               :LAS Program name and version
CREA.        2020/03/20 13:20                          :LAS Creation date {YYYY/MM/DD hh:mm}
DLIS_CREA.  2020-Feb-20 13:36                          :DLIS Creation date and time {YYYY-MMM-DD hh:mm}
SOURCE.     Esso_BTWW2PH_S1R1_SonicScanner_220m_1352m_Processed Results DLIS.dlis  :DLIS File Name
FILE-ID.     West Barracouta W2 Pilot Hole             :File Identification Number
#--------------------------------------------------
~WELL INFORMATION
#MNEM.UNIT      DATA             DESCRIPTION
#---- ------ --------------   -----------------------------
STRT .M       220.0656       :START DEPTH     
STOP .M      1352.8548       :STOP DEPTH     
STEP .M         0.1524       :STEP     
NULL .          -999.25      :NULL VALUE
COMP .        Esso Australia Pty Ltd                   :COMPANY
WELL .        West Barracouta W2 Pilot Hole            :WELL
FLD  .        West Barracouta                          :FIELD
LOC  .                                                 :LOCATION
CNTY .                                                 :COUNTY
STAT .        Victoria                                 :STATE
CTRY .        Australia                                :COUNTRY
API  .                                                 :API NUMBER
UWI  .                                                 :UNIQUE WELL ID
DATE .        13-Feb-2020                              :LOG DATE {DD-MMM-YYYY}
SRVC .        Schlumberger                             :SERVICE COMPANY
LATI .DEG     38° 19' 4.505" S                        :LATITUDE
LONG .DEG     147° 36' 57.772" E                      :LONGITUDE
GDAT .                                                 :GeoDetic Datum
#-----------------------------------------------------------------------------
~PARAMETER INFORMATION
#MNEM.UNIT    VALUE                      DESCRIPTION
#---- -----   --------------------       ------------------------
RUN  .          S1R1                     :RUN NUMBER
PDAT .        MSL                        :Permanent Datum
EPD  .M           0.000000               :Elevation of Permanent Datum above Mean Sea Level
LMF  .          DF                       :Logging Measured From (Name of Logging Elevation Reference)
APD  .M          46.400002               :Elevation of Depth Reference (LMF) above Permanent Datum
#-----------------------------------------------------------------------------
~CURVE INFORMATION
#MNEM.UNIT   API CODE                                  DESCRIPTION
#---- -----  --------                                  -----------------------
MD   .M                                                :DEPTH (BOREHOLE) {F10.4}
MD   .M                                                : {F13.4}
BS   .IN                                               :Bit Size {F13.4}
DTCO .US/F                                             :Compressional slowness {F13.4}
DTSH .US/F                                             :Shear slowness {F13.4}
GR_EDTC.GAPI                                           :Gamma Ray {F13.4}
HD1_PPC1.IN                                            :PPC1 Hole Diameter 1 {F13.4}
HD2_PPC1.IN                                            :PPC1 Hole Diameter 2 {F13.4}
PR   .UNITLESS                                         :Possion's Ratio {F13.4}
VPVS .UNITLESS                                         :VpVs Ratio {F13.4}
#-----------------------------------------------------------------------------
# 
#      MD         MD           BS           DTCO         DTSH       GR_EDTC      HD1_PPC1     HD2_PPC1       PR           VPVS
#
~A  
# ...
  594.5124     594.5124      17.5000      93.8410     223.3668      14.1726      12.3898      12.3848       0.3928       2.3803
  594.6648     594.6648      17.5000      89.7466     207.0939      15.1040      12.3898      12.3848       0.3844       2.3075
  594.8172     594.8172      17.5000      87.7406     193.9120      14.4684      12.3898      12.3848       0.3713       2.2101
  594.9696     594.9696      17.5000      87.7026     188.9465      13.1787      12.3776      12.3843       0.3627       2.1544
  595.1220     595.1220      17.5000      90.4765     197.3855      13.5909      12.4004      12.3970       0.3670       2.1816
  595.2744     595.2744      17.5000      98.3732     219.9113      15.3352      12.3898      12.3848       0.3749       2.2355
  595.4268     595.4268      17.5000     112.0866     245.3923      17.3867      12.3898      12.3848       0.3682       2.1893
  595.5792     595.5792      17.5000     117.3318     262.8432      15.2299      12.3898      12.3854       0.3756       2.2402
  595.7316     595.7316      17.5000     118.1101     267.6755      13.9354      12.4004      12.3848       0.3791       2.2663
  595.8840     595.8840      17.5000     117.5552     268.0609      15.6730      12.4004      12.3848       0.3809       2.2803
  596.0364     596.0364      17.5000     116.2295     266.0201      17.9352      12.3792      12.3848       0.3820       2.2887
  596.1888     596.1888      17.5000     114.2455     258.2151      17.7386      12.3898      12.3726       0.3783       2.2602
  596.3412     596.3412      17.5000     112.5371     248.7908      16.7105      12.3898      12.3848       0.3714       2.2107
  596.4936     596.4936      17.5000     111.2008     245.6495      16.4734      12.4004      12.3731       0.3711       2.2091
  596.6460     596.6460      17.5000     109.7598     247.6522      17.4311      12.4004      12.3848       0.3778       2.2563
  596.7984     596.7984      17.5000     110.0191     251.7419      15.6962      12.3898      12.3721       0.3820       2.2882
  596.9508     596.9508      17.5000     111.0081     256.9489      14.9085      12.3898      12.3726       0.3853       2.3147
  597.1032     597.1032      17.5000     112.3288     256.6970      16.4648      12.4004      12.3731       0.3816       2.2852
  597.2556     597.2556      17.5000     112.3662     253.8990      17.8726      12.3898      12.3848       0.3782       2.2596
  597.4080     597.4080      17.5000     112.9999     252.7137      18.5024      12.3792      12.3726       0.3750       2.2364
  597.5604     597.5604      17.5000     113.5149     249.4772      15.4496      12.3898      12.3848       0.3695       2.1977
  597.7128     597.7128      17.5000     113.1088     246.7124      14.3493      12.3898      12.3848       0.3669       2.1812
  597.8652     597.8652      17.5000     110.7643     248.1921      15.1554      12.3792      12.3726       0.3756       2.2407
  598.0176     598.0176      17.5000     108.2531     250.6421      17.2733      12.3898      12.3848       0.3853       2.3153
  598.1700     598.1700      17.5000     105.6781     247.5561      17.9924      12.3881      12.3843       0.3886       2.3425
  598.3224     598.3224      17.5000     103.3635     236.5729      15.5296      12.3881      12.3843       0.3820       2.2887
  598.4748     598.4748      17.5000     102.2340     227.4315      12.8344      12.3792      12.3848       0.3734       2.2246
  598.6272     598.6272      17.5000     101.6725     230.2423      12.0967      12.3792      12.3848       0.3789       2.2645
  598.7796     598.7796      17.5000     101.7077     241.8616      13.1782      12.3898      12.3970       0.3926       2.3780
  598.9320     598.9320      17.5000     102.3856     251.4799      16.3861      12.3792      12.3848       0.4007       2.4562
  599.0844     599.0844      17.5000     101.4241     249.6611      18.7804      12.3792      12.3848       0.4012       2.4616
  599.2368     599.2368      17.5000      99.7348     234.9676      18.7823      12.3792      12.3848       0.3901       2.3559
  599.3892     599.3892      17.5000      96.5333     214.2110      16.6531      12.3898      12.3848       0.3726       2.2190
  599.5416     599.5416      17.5000      93.3682     201.9383      13.1226      12.3881      12.3843       0.3640       2.1628
  599.6940     599.6940      17.5000      90.8590     200.1308      11.2613      12.3898      12.3848       0.3702       2.2027
  599.8464     599.8464      17.5000      88.7714     212.8830      11.8912      12.3792      12.3848       0.3948       2.3981
  599.9988     599.9988      17.5000      91.5253     240.4753      12.8165      12.3792      12.3848       0.4153       2.6274
  600.1512     600.1512      17.5000     100.3633     269.4691      13.8883      12.3792      12.3848       0.4195       2.6849
  600.3036     600.3036      17.5000     111.4005     288.5802      15.0994      12.3881      12.3843       0.4124       2.5905
  600.4560     600.4560      17.5000     118.9792     290.4437      17.2836      12.3898      12.3848       0.3992       2.4411
  600.6084     600.6084      17.5000     122.6925     283.5873      20.5140      12.3898      12.3970       0.3849       2.3114
  600.7608     600.7608      17.5000     124.5986     280.5104      19.9086      12.3792      12.3848       0.3771       2.2513
  600.9132     600.9132      17.5000     124.3097     280.6295      18.2888      12.3898      12.3848       0.3779       2.2575
  601.0656     601.0656      17.5000     121.9887     279.4321      16.7881      12.3792      12.3726       0.3823       2.2906
  601.2180     601.2180      17.5000     119.4266     275.0630      17.9172      12.3792      12.3848       0.3838       2.3032
  601.3704     601.3704      17.5000     117.6899     270.2896      17.5111      12.3792      12.3848       0.3830       2.2966
  601.5228     601.5228      17.5000     116.7677     268.3163      16.6194      12.3898      12.3848       0.3832       2.2979
  601.6752     601.6752      17.5000     116.2011     268.5335      17.7271      12.3792      12.3848       0.3848       2.3109
  601.8276     601.8276      17.5000     115.9369     268.1253      19.5431      12.3776      12.3843       0.3850       2.3127
  601.9800     601.9800      17.5000     116.4218     268.8250      19.6582      12.3881      12.3843       0.3846       2.3091
  602.1324     602.1324      17.5000     117.2447     271.0843      17.3150      12.3792      12.3848       0.3849       2.3121
  602.2848     602.2848      17.5000     117.9970     272.2319      17.4100      12.3792      12.3848       0.3843       2.3071
  602.4372     602.4372      17.5000     119.6897     272.0911      18.6606      12.3776      12.3848       0.3800       2.2733
  602.5896     602.5896      17.5000     122.7078     271.0633      19.6174      12.3792      12.3848       0.3711       2.2090
  602.7420     602.7420      17.5000     125.1980     269.8817      19.3635      12.3776      12.3843       0.3629       2.1556
  602.8944     602.8944      17.5000     125.9440     266.0717      16.6284      12.3792      12.3965       0.3556       2.1126
  603.0468     603.0468      17.5000     124.2972     257.3945      15.8309      12.3881      12.3843       0.3479       2.0708
  603.1992     603.1992      17.5000     119.1279     238.3541      14.6227      12.3688      12.3965       0.3335       2.0008
  603.3516     603.3516      17.5000     113.5915     215.9095      14.2585      12.3792      12.3848       0.3086       1.9008
  603.5040     603.5040      17.5000     109.1417     201.3914      13.0480      12.3792      12.3848       0.2921       1.8452
  603.6564     603.6564      17.5000     106.7348     202.3962      12.4426      12.3792      12.3848       0.3074       1.8963
  603.8088     603.8088      17.5000     107.4696     219.8159      13.4659      12.3688      12.3965       0.3429       2.0454
  603.9612     603.9612      17.5000     110.6828     240.5284      16.2872      12.3898      12.3848       0.3657       2.1731
