~VERSION INFORMATION
VERS.           2.0   :CWLS Log ASCII Standard - VERSION 2.0
WRAP.           NO    :One Line per depth step
PROD.  Schlumberger   :LAS Producer
PROG.  DLIS to ASCII 2.3                               :LAS Program name and version
CREA.        2020/03/20 13:20                          :LAS Creation date {YYYY/MM/DD hh:mm}
DLIS_CREA.  2020-Feb-20 13:36                          :DLIS Creation date and time {YYYY-MMM-DD hh:mm}
SOURCE.     Esso_BTWW2PH_S1R1_SonicScanner_220m_1352m_Processed Results DLIS.dlis  :DLIS File Name
FILE-ID.     West Barracouta W2 Pilot Hole             :File Identification Number
#--------------------------------------------------
~WELL INFORMATION
#MNEM.UNIT      DATA             DESCRIPTION
#---- ------ --------------   -----------------------------
STRT .M       220.0656       :START DEPTH     
STOP .M      1352.8548       :STOP DEPTH     
STEP .M         0.1524       :STEP     
NULL .          -999.25      :NULL VALUE
COMP .        Esso Australia Pty Ltd                   :COMPANY
WELL .        West Barracouta W2 Pilot Hole            :WELL
FLD  .        West Barracouta                          :FIELD
LOC  .                                                 :LOCATION
CNTY .                                                 :COUNTY
STAT .        Victoria                                 :STATE
CTRY .        Australia                                :COUNTRY
API  .                                                 :API NUMBER
UWI  .                                                 :UNIQUE WELL ID
DATE .        13-Feb-2020                              :LOG DATE {DD-MMM-YYYY}
SRVC .        Schlumberger                             :SERVICE COMPANY
LATI .DEG     38° 19' 4.505" S                        :LATITUDE
LONG .DEG     147° 36' 57.772" E                      :LONGITUDE
GDAT .                                                 :GeoDetic Datum
#-----------------------------------------------------------------------------
~PARAMETER INFORMATION
#MNEM.UNIT    VALUE                      DESCRIPTION
#---- -----   --------------------       ------------------------
RUN  .          S1R1                     :RUN NUMBER
PDAT .        MSL                        :Permanent Datum
EPD  .M           0.000000               :Elevation of Permanent Datum above Mean Sea Level
LMF  .          DF                       :Logging Measured From (Name of Logging Elevation Reference)
APD  .M          46.400002               :Elevation of Depth Reference (LMF) above Permanent Datum
#-----------------------------------------------------------------------------
~CURVE INFORMATION
#MNEM.UNIT   API CODE                                  DESCRIPTION
#---- -----  --------                                  -----------------------
MD   .M                                                :DEPTH (BOREHOLE) {F10.4}
MD   .M                                                : {F13.4}
BS   .IN                                               :Bit Size {F13.4}
DTCO .US/F                                             :Compressional slowness {F13.4}
DTSH .US/F                                             :Shear slowness {F13.4}
GR_EDTC.GAPI                                           :Gamma Ray {F13.4}
HD1_PPC1.IN                                            :PPC1 Hole Diameter 1 {F13.4}
HD2_PPC1.IN                                            :PPC1 Hole Diameter 2 {F13.4}
PR   .UNITLESS                                         :Possion's Ratio {F13.4}
VPVS .UNITLESS                                         :VpVs Ratio {F13.4}
#-----------------------------------------------------------------------------
# 
#      MD         MD           BS           DTCO         DTSH       GR_EDTC      HD1_PPC1     HD2_PPC1       PR           VPVS
#
~A  
# ...
  892.1496     892.1496       9.5000     109.2766     230.8835      36.7774       9.5098       9.5747       0.3557       2.1128
  892.3020     892.3020       9.5000     111.0981     234.8807      38.1856       9.4986       9.5618       0.3559       2.1142
  892.4544     892.4544       9.5000     112.7828     242.6920      39.4181       9.5210       9.5618       0.3623       2.1519
  892.6068     892.6068       9.5000     113.4190     252.0931      37.9708       9.4986       9.5618       0.3731       2.2227
  892.7592     892.7592       9.5000     112.8772     259.8619      36.6729       9.4986       9.5618       0.3837       2.3022
  892.9116     892.9116       9.5000     110.4237     258.3836      35.9398       9.5210       9.5618       0.3883       2.3399
  893.0640     893.0640       9.5000     105.7724     245.5423      34.3423       9.4986       9.5618       0.3861       2.3214
  893.2164     893.2164       9.5000     100.9397     222.7928      33.1155       9.5210       9.5618       0.3709       2.2072
  893.3688     893.3688       9.5000      98.3752     203.7873      26.9354       9.5210       9.5495       0.3481       2.0715
  893.5212     893.5212       9.5000      97.7941     190.1265      20.9833       9.4986       9.5618       0.3201       1.9442
  893.6736     893.6736       9.5000      98.5435     190.1228      18.0371       9.5210       9.5618       0.3163       1.9293
  893.8260     893.8260       9.5000     100.3410     197.5048      21.0343       9.5210       9.5495       0.3260       1.9683
  893.9784     893.9784       9.5000     102.4356     206.0771      25.9020       9.4986       9.5875       0.3359       2.0118
  894.1308     894.1308       9.5000     104.7071     213.7475      26.5603       9.5210       9.5618       0.3421       2.0414
  894.2832     894.2832       9.5000     106.5268     220.1389      27.7460       9.5210       9.5618       0.3471       2.0665
  894.4356     894.4356       9.5000     108.1506     225.1429      28.4045       9.4986       9.5618       0.3500       2.0818
  894.5880     894.5880       9.5000     109.3158     228.4653      31.2151       9.5098       9.5618       0.3515       2.0900
  894.7404     894.7404       9.5000     109.9129     228.7228      31.6072       9.5210       9.5495       0.3499       2.0809
  894.8928     894.8928       9.5000     109.7611     227.9778      30.8946       9.5210       9.5495       0.3491       2.0770
  895.0452     895.0452       9.5000     109.4189     226.9858      27.6633       9.5210       9.5495       0.3486       2.0745
  895.1976     895.1976       9.5000     109.2162     224.2096      29.3215       9.5098       9.5495       0.3444       2.0529
  895.3500     895.3500       9.5000     109.3815     222.6009      30.1412       9.5098       9.5618       0.3408       2.0351
  895.5024     895.5024       9.5000     109.4140     224.6969      33.4036       9.5210       9.5495       0.3446       2.0536
  895.6548     895.6548       9.5000     108.4691     229.4693      31.4557       9.5210       9.5489       0.3561       2.1155
  895.8072     895.8072       9.5000     106.3137     229.9551      30.4809       9.5210       9.5618       0.3641       2.1630
  895.9596     895.9596       9.5000     103.6985     223.8521      31.5292       9.5210       9.5618       0.3634       2.1587
  896.1120     896.1120       9.5000     101.8959     215.0152      31.0549       9.5210       9.5366       0.3552       2.1101
  896.2644     896.2644       9.5000     101.8577     207.1284      30.0654       9.5210       9.5495       0.3405       2.0335
  896.4168     896.4168       9.5000     103.5438     203.6572      29.4884       9.5210       9.5495       0.3257       1.9669
  896.5692     896.5692       9.5000     105.7824     205.8395      33.9107       9.4986       9.5495       0.3206       1.9459
  896.7216     896.7216       9.5000     107.2109     212.6749      36.8218       9.4986       9.5618       0.3296       1.9837
  896.8740     896.8740       9.5000     107.4115     217.0945      36.9533       9.4986       9.5495       0.3379       2.0211
  897.0264     897.0264       9.5000     106.5423     217.1265      31.4274       9.4986       9.5495       0.3414       2.0379
  897.1788     897.1788       9.5000     105.2070     214.6053      27.5569       9.5098       9.5495       0.3418       2.0398
  897.3312     897.3312       9.5000     103.7973     211.6460      25.2037       9.5210       9.5495       0.3417       2.0390
  897.4836     897.4836       9.5000     103.0302     207.7812      26.9901       9.4986       9.5495       0.3370       2.0167
  897.6360     897.6360       9.5000     102.2972     204.0514      25.1184       9.5210       9.5495       0.3321       1.9947
  897.7884     897.7884       9.5000     100.9220     200.6380      23.3435       9.5210       9.5495       0.3306       1.9881
  897.9408     897.9408       9.5000      99.2332     196.4644      22.1895       9.5098       9.5495       0.3287       1.9798
  898.0932     898.0932       9.5000      98.3669     190.3674      24.5886       9.5210       9.5495       0.3179       1.9353
  898.2456     898.2456       9.5000      99.2445     186.9592      26.3247       9.5098       9.5495       0.3038       1.8838
  898.3980     898.3980       9.5000     101.7607     189.8469      27.2174       9.4986       9.5372       0.2984       1.8656
  898.5504     898.5504       9.5000     104.9320     198.7729      29.4784       9.4986       9.5495       0.3068       1.8943
  898.7028     898.7028       9.5000     107.4893     212.0186      34.8955       9.4986       9.5495       0.3270       1.9725
  898.8552     898.8552       9.5000     107.8967     224.1573      38.2373       9.4986       9.5495       0.3492       2.0775
  899.0076     899.0076       9.5000     104.4439     228.2684      40.3703       9.4986       9.5495       0.3676       2.1856
  899.1600     899.1600       9.5000      99.0266     218.0229      34.1382       9.5210       9.5495       0.3700       2.2017
  899.3124     899.3124       9.5000      95.2055     204.9154      26.9733       9.4431       9.5495       0.3624       2.1523
  899.4648     899.4648       9.5000      94.4509     194.3060      20.1349       9.5098       9.5618       0.3453       2.0572
  899.6172     899.6172       9.5000      96.1275     190.2619      21.3238       9.5098       9.5495       0.3286       1.9793
  899.7696     899.7696       9.5000      99.2051     195.9250      25.5156       9.5098       9.5495       0.3276       1.9749
  899.9220     899.9220       9.5000     101.6968     205.2489      31.1931       9.5210       9.5495       0.3373       2.0182
  900.0744     900.0744       9.5000     102.9846     211.9356      33.3962       9.5098       9.5618       0.3454       2.0579
  900.2268     900.2268       9.5000     102.8121     213.8724      33.9495       9.4876       9.5618       0.3497       2.0802
  900.3792     900.3792       9.5000     101.5578     211.3967      31.6640       9.4986       9.5495       0.3500       2.0815
  900.5316     900.5316       9.5000      99.8999     206.5170      30.1397       9.4986       9.5495       0.3473       2.0672
  900.6840     900.6840       9.5000      97.9818     200.9317      30.7686       9.4986       9.5495       0.3440       2.0507
  900.8364     900.8364       9.5000      95.4397     193.4833      31.1443       9.4986       9.5495       0.3392       2.0273
  900.9888     900.9888       9.5000      92.7643     187.1276      30.9844       9.4986       9.5495       0.3371       2.0172
  901.1412     901.1412       9.5000      91.3750     182.7732      29.0930       9.4986       9.5618       0.3334       2.0003
  901.2936     901.2936       9.5000      92.3927     181.3375      27.8729       9.4876       9.5618       0.3247       1.9627
  901.4460     901.4460       9.5000      96.5724     187.3596      28.3759       9.4986       9.5618       0.3191       1.9401
  901.5984     901.5984       9.5000     104.0173     204.5796      34.4323       9.4986       9.5618       0.3257       1.9668
