~VERSION INFORMATION
VERS.           2.0   :CWLS Log ASCII Standard - VERSION 2.0
WRAP.           NO    :One Line per depth step
PROD.  Schlumberger   :LAS Producer
PROG.  DLIS to ASCII 2.3                               :LAS Program name and version
CREA.        2020/03/20 13:20                          :LAS Creation date {YYYY/MM/DD hh:mm}
DLIS_CREA.  2020-Feb-20 13:36                          :DLIS Creation date and time {YYYY-MMM-DD hh:mm}
SOURCE.     Esso_BTWW2PH_S1R1_SonicScanner_220m_1352m_Processed Results DLIS.dlis  :DLIS File Name
FILE-ID.     West Barracouta W2 Pilot Hole             :File Identification Number
#--------------------------------------------------
~WELL INFORMATION
#MNEM.UNIT      DATA             DESCRIPTION
#---- ------ --------------   -----------------------------
STRT .M       220.0656       :START DEPTH     
STOP .M      1352.8548       :STOP DEPTH     
STEP .M         0.1524       :STEP     
NULL .          -999.25      :NULL VALUE
COMP .        Esso Australia Pty Ltd                   :COMPANY
WELL .        West Barracouta W2 Pilot Hole            :WELL
FLD  .        West Barracouta                          :FIELD
LOC  .                                                 :LOCATION
CNTY .                                                 :COUNTY
STAT .        Victoria                                 :STATE
CTRY .        Australia                                :COUNTRY
API  .                                                 :API NUMBER
UWI  .                                                 :UNIQUE WELL ID
DATE .        13-Feb-2020                              :LOG DATE {DD-MMM-YYYY}
SRVC .        Schlumberger                             :SERVICE COMPANY
LATI .DEG     38° 19' 4.505" S                        :LATITUDE
LONG .DEG     147° 36' 57.772" E                      :LONGITUDE
GDAT .                                                 :GeoDetic Datum
#-----------------------------------------------------------------------------
~PARAMETER INFORMATION
#MNEM.UNIT    VALUE                      DESCRIPTION
#---- -----   --------------------       ------------------------
RUN  .          S1R1                     :RUN NUMBER
PDAT .        MSL                        :Permanent Datum
EPD  .M           0.000000               :Elevation of Permanent Datum above Mean Sea Level
LMF  .          DF                       :Logging Measured From (Name of Logging Elevation Reference)
APD  .M          46.400002               :Elevation of Depth Reference (LMF) above Permanent Datum
#-----------------------------------------------------------------------------
~CURVE INFORMATION
#MNEM.UNIT   API CODE                                  DESCRIPTION
#---- -----  --------                                  -----------------------
MD   .M                                                :DEPTH (BOREHOLE) {F10.4}
MD   .M                                                : {F13.4}
BS   .IN                                               :Bit Size {F13.4}
DTCO .US/F                                             :Compressional slowness {F13.4}
DTSH .US/F                                             :Shear slowness {F13.4}
GR_EDTC.GAPI                                           :Gamma Ray {F13.4}
HD1_PPC1.IN                                            :PPC1 Hole Diameter 1 {F13.4}
HD2_PPC1.IN                                            :PPC1 Hole Diameter 2 {F13.4}
PR   .UNITLESS                                         :Possion's Ratio {F13.4}
VPVS .UNITLESS                                         :VpVs Ratio {F13.4}
#-----------------------------------------------------------------------------
# 
#      MD         MD           BS           DTCO         DTSH       GR_EDTC      HD1_PPC1     HD2_PPC1       PR           VPVS
#
~A  
# ...
 1266.5964    1266.5964       9.5000     127.2225     213.8294      19.0118       9.4654       9.4721       0.2260       1.6808
 1266.7488    1266.7488       9.5000     126.5030     206.5954      21.2461       9.4432       9.4721       0.2001       1.6331
 1266.9012    1266.9012       9.5000     126.5030     203.6155      20.8005       9.4432       9.4721       0.1857       1.6096
 1267.0536    1267.0536       9.5000     125.6696     206.1012      21.6713       9.4432       9.4721       0.2041       1.6400
 1267.2060    1267.2060       9.5000     125.0533     209.3582      19.2925       9.4544       9.4721       0.2227       1.6742
 1267.3584    1267.3584       9.5000     123.8052     209.0576      18.9759       9.4544       9.4721       0.2299       1.6886
 1267.5108    1267.5108       9.5000     122.3696     206.0660      15.5286       9.4654       9.4721       0.2276       1.6840
 1267.6632    1267.6632       9.5000     120.7308     202.7370      12.4899       9.4542       9.4850       0.2253       1.6792
 1267.8156    1267.8156       9.5000     119.1431     198.5251       9.7283       9.4765       9.4721       0.2185       1.6663
 1267.9680    1267.9680       9.5000     117.9351     193.2327      10.4908       9.4432       9.4721       0.2032       1.6385
 1268.1204    1268.1204       9.5000     117.2412     189.7837      13.0168       9.4654       9.4721       0.1914       1.6187
 1268.2728    1268.2728       9.5000     117.0911     186.7443      13.1488       9.4654       9.4721       0.1761       1.5949
 1268.4252    1268.4252       9.5000     116.9105     185.1759      16.0872       9.4765       9.4721       0.1686       1.5839
 1268.5776    1268.5776       9.5000     116.5535     185.4655      18.0872       9.4542       9.4721       0.1736       1.5912
 1268.7300    1268.7300       9.5000     115.8122     187.1359      19.5872       9.4765       9.4721       0.1896       1.6159
 1268.8824    1268.8824       9.5000     115.2516     189.9163      19.8064       9.4432       9.4721       0.2085       1.6478
 1269.0348    1269.0348       9.5000     115.0166     194.2862      19.5010       9.4544       9.4721       0.2302       1.6892
 1269.1872    1269.1872       9.5000     115.1130     198.0173      19.9471       9.4432       9.4721       0.2448       1.7202
 1269.3396    1269.3396       9.5000     115.6437     199.6591      20.2339       9.4544       9.4850       0.2476       1.7265
 1269.4920    1269.4920       9.5000     116.1989     197.4520      23.0082       9.4432       9.4721       0.2351       1.6993
 1269.6444    1269.6444       9.5000     117.3461     195.4311      24.7560       9.4432       9.4721       0.2181       1.6654
 1269.7968    1269.7968       9.5000     118.6899     194.0853      24.0440       9.4544       9.4721       0.2013       1.6352
 1269.9492    1269.9492       9.5000     119.6604     192.7395      20.7537       9.4320       9.4721       0.1864       1.6107
 1270.1016    1270.1016       9.5000     120.0904     191.3938      19.9544       9.4432       9.4721       0.1753       1.5937
 1270.2540    1270.2540       9.5000     119.7610     190.0480      19.9841       9.4432       9.4721       0.1707       1.5869
 1270.4064    1270.4064       9.5000     117.8076     185.7326      20.5396       9.4544       9.4721       0.1634       1.5766
 1270.5588    1270.5588       9.5000     115.3150     182.3953      19.9620       9.4544       9.4721       0.1671       1.5817
 1270.7112    1270.7112       9.5000     113.4734     179.7535      18.7787       9.4432       9.4844       0.1687       1.5841
 1270.8636    1270.8636       9.5000     112.8625     178.4175      20.0683       9.4654       9.4850       0.1665       1.5808
 1271.0160    1271.0160       9.5000     112.9481     176.8790      19.1974       9.4432       9.4850       0.1557       1.5660
 1271.1684    1271.1684       9.5000     113.4847     176.0241      19.8024       9.4654       9.4721       0.1443       1.5511
 1271.3208    1271.3208       9.5000     113.7447     174.8105      17.5456       9.4432       9.4721       0.1329       1.5369
 1271.4732    1271.4732       9.5000     113.6986     174.5071      17.6263       9.4432       9.4721       0.1312       1.5348
 1271.6256    1271.6256       9.5000     113.2567     173.9004      18.8869       9.4320       9.4721       0.1317       1.5355
 1271.7780    1271.7780       9.5000     113.0855     172.8493      16.8836       9.4432       9.4721       0.1258       1.5285
 1271.9304    1271.9304       9.5000     113.0327     173.7773      16.1465       9.4320       9.4721       0.1333       1.5374
 1272.0828    1272.0828       9.5000     112.7306     175.0535      14.0187       9.4320       9.4721       0.1457       1.5528
 1272.2352    1272.2352       9.5000     112.2959     176.9343      16.8857       9.4432       9.4721       0.1627       1.5756
 1272.3876    1272.3876       9.5000     111.6612     176.1891      17.3061       9.4320       9.4721       0.1644       1.5779
 1272.5400    1272.5400       9.5000     111.0290     174.7043      18.1830       9.4432       9.4721       0.1612       1.5735
 1272.6924    1272.6924       9.5000     110.5945     171.8609      17.1026       9.4320       9.4721       0.1466       1.5540
 1272.8448    1272.8448       9.5000     110.5700     171.2108      16.5231       9.4320       9.4850       0.1423       1.5484
 1272.9972    1272.9972       9.5000     110.6830     172.8528      14.6454       9.4432       9.4973       0.1525       1.5617
 1273.1496    1273.1496       9.5000     110.9710     172.8528      14.3828       9.4209       9.4721       0.1494       1.5576
 1273.3020    1273.3020       9.5000     106.9712     167.8815      15.1474       9.4320       9.4721       0.1582       1.5694
 1273.4544    1273.4544       9.5000     104.6211     166.1896      14.0169       9.4320       9.4721       0.1718       1.5885
 1273.6068    1273.6068       9.5000     104.8603     166.7735      13.6767       9.4320       9.4721       0.1731       1.5904
 1273.7592    1273.7592       9.5000     105.2017     167.2609      14.2018       9.4432       9.4721       0.1727       1.5899
 1273.9116    1273.9116       9.5000     105.2464     167.9302      18.2510       9.4320       9.4721       0.1766       1.5956
 1274.0640    1274.0640       9.5000     104.4360     167.9011      22.5872       9.4432       9.4721       0.1845       1.6077
 1274.2164    1274.2164       9.5000     104.4860     167.6066      21.5886       9.4320       9.4721       0.1822       1.6041
 1274.3688    1274.3688       9.5000     104.3227     167.1908      20.0647       9.4320       9.4844       0.1812       1.6026
 1274.5212    1274.5212       9.5000     103.5702     166.5323      16.9115       9.4432       9.4721       0.1846       1.6079
 1274.6736    1274.6736       9.5000     103.5179     166.0576      17.0689       9.4432       9.4721       0.1822       1.6041
 1274.8260    1274.8260       9.5000     104.9031     166.7691      18.3702       9.4320       9.4973       0.1726       1.5897
 1274.9784    1274.9784       9.5000     107.7443     168.3980      16.8963       9.4209       9.4844       0.1534       1.5629
 1275.1308    1275.1308       9.5000     110.6724     169.8504      17.6334       9.4209       9.4844       0.1311       1.5347
 1275.2832    1275.2832       9.5000     111.7518     173.1181      17.8001       9.4320       9.4844       0.1428       1.5491
 1275.4356    1275.4356       9.5000     112.7165     177.1120      18.9051       9.4320       9.4844       0.1596       1.5713
 1275.5880    1275.5880       9.5000     113.4268     180.1094      19.6654       9.4432       9.4844       0.1714       1.5879
 1275.7404    1275.7404       9.5000     115.5433     182.8177      20.8274       9.4765       9.4721       0.1674       1.5822
 1275.8928    1275.8928       9.5000     115.9693     186.8800      26.4592       9.4765       9.4721       0.1869       1.6115
 1276.0452    1276.0452       9.5000     116.4308     189.5882      27.6168       9.4765       9.4721       0.1972       1.6283
