~VERSION INFORMATION
VERS.           2.0   :CWLS Log ASCII Standard - VERSION 2.0
WRAP.           NO    :One Line per depth step
PROD.  Schlumberger   :LAS Producer
PROG.  DLIS to ASCII 2.3                               :LAS Program name and version
CREA.        2020/03/20 13:20                          :LAS Creation date {YYYY/MM/DD hh:mm}
DLIS_CREA.  2020-Feb-20 13:36                          :DLIS Creation date and time {YYYY-MMM-DD hh:mm}
SOURCE.     Esso_BTWW2PH_S1R1_SonicScanner_220m_1352m_Processed Results DLIS.dlis  :DLIS File Name
FILE-ID.     West Barracouta W2 Pilot Hole             :File Identification Number
#--------------------------------------------------
~WELL INFORMATION
#MNEM.UNIT      DATA             DESCRIPTION
#---- ------ --------------   -----------------------------
STRT .M       220.0656       :START DEPTH     
STOP .M      1352.8548       :STOP DEPTH     
STEP .M         0.1524       :STEP     
NULL .          -999.25      :NULL VALUE
COMP .        Esso Australia Pty Ltd                   :COMPANY
WELL .        West Barracouta W2 Pilot Hole            :WELL
FLD  .        West Barracouta                          :FIELD
LOC  .                                                 :LOCATION
CNTY .                                                 :COUNTY
STAT .        Victoria                                 :STATE
CTRY .        Australia                                :COUNTRY
API  .                                                 :API NUMBER
UWI  .                                                 :UNIQUE WELL ID
DATE .        13-Feb-2020                              :LOG DATE {DD-MMM-YYYY}
SRVC .        Schlumberger                             :SERVICE COMPANY
LATI .DEG     38° 19' 4.505" S                        :LATITUDE
LONG .DEG     147° 36' 57.772" E                      :LONGITUDE
GDAT .                                                 :GeoDetic Datum
#-----------------------------------------------------------------------------
~PARAMETER INFORMATION
#MNEM.UNIT    VALUE                      DESCRIPTION
#---- -----   --------------------       ------------------------
RUN  .          S1R1                     :RUN NUMBER
PDAT .        MSL                        :Permanent Datum
EPD  .M           0.000000               :Elevation of Permanent Datum above Mean Sea Level
LMF  .          DF                       :Logging Measured From (Name of Logging Elevation Reference)
APD  .M          46.400002               :Elevation of Depth Reference (LMF) above Permanent Datum
#-----------------------------------------------------------------------------
~CURVE INFORMATION
#MNEM.UNIT   API CODE                                  DESCRIPTION
#---- -----  --------                                  -----------------------
MD   .M                                                :DEPTH (BOREHOLE) {F10.4}
MD   .M                                                : {F13.4}
BS   .IN                                               :Bit Size {F13.4}
DTCO .US/F                                             :Compressional slowness {F13.4}
DTSH .US/F                                             :Shear slowness {F13.4}
GR_EDTC.GAPI                                           :Gamma Ray {F13.4}
HD1_PPC1.IN                                            :PPC1 Hole Diameter 1 {F13.4}
HD2_PPC1.IN                                            :PPC1 Hole Diameter 2 {F13.4}
PR   .UNITLESS                                         :Possion's Ratio {F13.4}
VPVS .UNITLESS                                         :VpVs Ratio {F13.4}
#-----------------------------------------------------------------------------
# 
#      MD         MD           BS           DTCO         DTSH       GR_EDTC      HD1_PPC1     HD2_PPC1       PR           VPVS
#
~A  
# ...
  671.3220     671.3220       9.5000     116.7564     263.5182      33.2307       9.5428       9.8015       0.3779       2.2570
  671.4744     671.4744       9.5000     117.8288     271.7182      34.3092       9.5428       9.8138       0.3842       2.3060
  671.6268     671.6268       9.5000     119.3531     278.1626      37.1512       9.5316       9.8015       0.3872       2.3306
  671.7792     671.7792       9.5000     121.1577     282.4995      39.1336       9.5316       9.8138       0.3873       2.3317
  671.9316     671.9316       9.5000     122.8292     284.1489      38.7117       9.5427       9.8015       0.3851       2.3134
  672.0840     672.0840       9.5000     124.0308     286.5936      41.0528       9.5427       9.8260       0.3848       2.3107
  672.2364     672.2364       9.5000     124.5218     293.2549      45.1340       9.5427       9.8138       0.3900       2.3550
  672.3888     672.3888       9.5000     124.2765     296.1564      45.1621       9.5539       9.8138       0.3931       2.3830
  672.5412     672.5412       9.5000     123.2705     293.9962      39.3206       9.5316       9.8015       0.3933       2.3850
  672.6936     672.6936       9.5000     121.6461     289.4026      36.4757       9.5427       9.7759       0.3927       2.3791
  672.8460     672.8460       9.5000     120.3053     283.3718      35.0255       9.5428       9.7887       0.3901       2.3554
  672.9984     672.9984       9.5000     119.9971     279.4024      37.9361       9.5316       9.7887       0.3869       2.3284
  673.1508     673.1508       9.5000     120.4650     278.0295      34.8869       9.5428       9.7759       0.3844       2.3080
  673.3032     673.3032       9.5000     121.2546     280.7119      36.3774       9.5539       9.7513       0.3853       2.3151
  673.4556     673.4556       9.5000     122.2141     284.3493      35.6753       9.5427       9.7385       0.3867       2.3266
  673.6080     673.6080       9.5000     123.1266     287.8645      37.3839       9.5539       9.7256       0.3880       2.3380
  673.7604     673.7604       9.5000     123.8615     289.5396      36.5525       9.5539       9.7133       0.3880       2.3376
  673.9128     673.9128       9.5000     124.2238     289.2112      36.7170       9.5316       9.7011       0.3869       2.3281
  674.0652     674.0652       9.5000     123.8675     288.0222      36.3229       9.5428       9.6754       0.3865       2.3252
  674.2176     674.2176       9.5000     122.6983     285.0395      35.5766       9.5316       9.6882       0.3863       2.3231
  674.3700     674.3700       9.5000     120.8401     280.4667      34.4660       9.5539       9.6754       0.3860       2.3210
  674.5224     674.5224       9.5000     118.6958     277.4424      36.3346       9.5650       9.6508       0.3880       2.3374
  674.6748     674.6748       9.5000     117.3511     270.3620      35.9245       9.5316       9.6631       0.3839       2.3039
  674.8272     674.8272       9.5000     117.7678     263.4705      35.2397       9.5428       9.6631       0.3752       2.2372
  674.9796     674.9796       9.5000     119.7972     267.5251      33.2645       9.5539       9.6754       0.3746       2.2331
  675.1320     675.1320       9.5000     122.5502     281.1147      33.7567       9.5428       9.6754       0.3827       2.2939
  675.2844     675.2844       9.5000     124.8670     293.7890      37.1507       9.5649       9.6882       0.3898       2.3528
  675.4368     675.4368       9.5000     125.7086     298.7620      39.1010       9.5650       9.6882       0.3924       2.3766
  675.5892     675.5892       9.5000     124.6654     294.2749      43.1892       9.5650       9.6882       0.3906       2.3605
  675.7416     675.7416       9.5000     122.2808     284.3811      42.0334       9.5650       9.6754       0.3866       2.3256
  675.8940     675.8940       9.5000     119.2340     272.4599      42.9761       9.5762       9.6882       0.3816       2.2851
  676.0464     676.0464       9.5000     116.5007     261.1959      38.4344       9.5428       9.6631       0.3758       2.2420
  676.1988     676.1988       9.5000     114.8574     255.4602      35.3544       9.5316       9.6379       0.3733       2.2242
  676.3512     676.3512       9.5000     113.9636     257.5097      35.1182       9.5428       9.6625       0.3782       2.2596
  676.5036     676.5036       9.5000     114.0049     263.5976      38.9538       9.5650       9.6631       0.3850       2.3122
  676.6560     676.6560       9.5000     114.3688     268.2636      41.0599       9.5650       9.6631       0.3889       2.3456
  676.8084     676.8084       9.5000     114.0626     268.2109      38.6421       9.5762       9.6754       0.3896       2.3514
  676.9608     676.9608       9.5000     113.8810     262.9655      36.1882       9.5540       9.6508       0.3846       2.3091
  677.1132     677.1132       9.5000     114.3137     258.5143      34.7141       9.5650       9.6754       0.3785       2.2614
  677.2656     677.2656       9.5000     115.4033     261.9932      36.4727       9.5540       9.6631       0.3796       2.2702
  677.4180     677.4180       9.5000     117.7068     274.2320      35.5251       9.5206       9.6754       0.3871       2.3298
  677.5704     677.5704       9.5000     120.8140     288.4256      35.3929       9.5650       9.7256       0.3936       2.3874
  677.7228     677.7228       9.5000     124.0771     296.7383      35.2661       9.5762       9.7133       0.3941       2.3916
  677.8752     677.8752       9.5000     126.9865     300.1624      36.5563       9.5428       9.6631       0.3910       2.3637
  678.0276     678.0276       9.5000     128.4199     301.3076      39.8184       9.5762       9.6754       0.3890       2.3463
  678.1800     678.1800       9.5000     129.1801     296.4671      39.5814       9.5540       9.6754       0.3828       2.2950
  678.3324     678.3324       9.5000     126.8802     279.7776      38.3079       9.5650       9.6631       0.3705       2.2051
  678.4848     678.4848       9.5000     112.5575     244.9211      33.5429       9.5540       9.6250       0.3661       2.1760
  678.6372     678.6372       9.5000      92.7168     199.0793      26.8623       9.5206       9.6127       0.3615       2.1472
  678.7896     678.7896       9.5000      81.3921     163.8776      22.1389       9.5318       9.6250       0.3363       2.0134
  678.9420     678.9420       9.5000      80.7209     155.3691      21.5651       9.5318       9.6127       0.3151       1.9248
  679.0944     679.0944       9.5000      85.9159     162.9352      23.8279       9.5318       9.6400       0.3074       1.8965
  679.2468     679.2468       9.5000      96.7318     189.1152      28.6141       9.5540       9.6127       0.3228       1.9550
  679.3992     679.3992       9.5000     107.6169     232.9245      36.8316       9.5206       9.5999       0.3643       2.1644
  679.5516     679.5516       9.5000     113.7157     261.4958      41.1419       9.5318       9.5999       0.3834       2.2996
  679.7040     679.7040       9.5000     116.0159     270.1071      39.6149       9.5540       9.5875       0.3869       2.3282
  679.8564     679.8564       9.5000     115.2542     267.7679      37.7318       9.5430       9.5618       0.3863       2.3233
  680.0088     680.0088       9.5000     110.7045     256.1834      34.9730       9.5318       9.5747       0.3852       2.3141
  680.1612     680.1612       9.5000     103.8137     232.9886      32.0813       9.5540       9.5618       0.3761       2.2443
  680.3136     680.3136       9.5000      99.7332     216.1389      27.8790       9.5318       9.5495       0.3647       2.1672
  680.4660     680.4660       9.5000      98.8589     214.9181      27.7462       9.5206       9.5624       0.3658       2.1740
  680.6184     680.6184       9.5000     100.5407     230.7688      31.9285       9.5318       9.5747       0.3829       2.2953
  680.7708     680.7708       9.5000     106.7832     253.9518      32.2959       9.5318       9.5747       0.3926       2.3782
