~VERSION INFORMATION
VERS.           2.0   :CWLS Log ASCII Standard - VERSION 2.0
WRAP.           NO    :One Line per depth step
PROD.  Schlumberger   :LAS Producer
PROG.  DLIS to ASCII 2.3                               :LAS Program name and version
CREA.        2020/03/20 13:20                          :LAS Creation date {YYYY/MM/DD hh:mm}
DLIS_CREA.  2020-Feb-20 13:36                          :DLIS Creation date and time {YYYY-MMM-DD hh:mm}
SOURCE.     Esso_BTWW2PH_S1R1_SonicScanner_220m_1352m_Processed Results DLIS.dlis  :DLIS File Name
FILE-ID.     West Barracouta W2 Pilot Hole             :File Identification Number
#--------------------------------------------------
~WELL INFORMATION
#MNEM.UNIT      DATA             DESCRIPTION
#---- ------ --------------   -----------------------------
STRT .M       220.0656       :START DEPTH     
STOP .M      1352.8548       :STOP DEPTH     
STEP .M         0.1524       :STEP     
NULL .          -999.25      :NULL VALUE
COMP .        Esso Australia Pty Ltd                   :COMPANY
WELL .        West Barracouta W2 Pilot Hole            :WELL
FLD  .        West Barracouta                          :FIELD
LOC  .                                                 :LOCATION
CNTY .                                                 :COUNTY
STAT .        Victoria                                 :STATE
CTRY .        Australia                                :COUNTRY
API  .                                                 :API NUMBER
UWI  .                                                 :UNIQUE WELL ID
DATE .        13-Feb-2020                              :LOG DATE {DD-MMM-YYYY}
SRVC .        Schlumberger                             :SERVICE COMPANY
LATI .DEG     38° 19' 4.505" S                        :LATITUDE
LONG .DEG     147° 36' 57.772" E                      :LONGITUDE
GDAT .                                                 :GeoDetic Datum
#-----------------------------------------------------------------------------
~PARAMETER INFORMATION
#MNEM.UNIT    VALUE                      DESCRIPTION
#---- -----   --------------------       ------------------------
RUN  .          S1R1                     :RUN NUMBER
PDAT .        MSL                        :Permanent Datum
EPD  .M           0.000000               :Elevation of Permanent Datum above Mean Sea Level
LMF  .          DF                       :Logging Measured From (Name of Logging Elevation Reference)
APD  .M          46.400002               :Elevation of Depth Reference (LMF) above Permanent Datum
#-----------------------------------------------------------------------------
~CURVE INFORMATION
#MNEM.UNIT   API CODE                                  DESCRIPTION
#---- -----  --------                                  -----------------------
MD   .M                                                :DEPTH (BOREHOLE) {F10.4}
MD   .M                                                : {F13.4}
BS   .IN                                               :Bit Size {F13.4}
DTCO .US/F                                             :Compressional slowness {F13.4}
DTSH .US/F                                             :Shear slowness {F13.4}
GR_EDTC.GAPI                                           :Gamma Ray {F13.4}
HD1_PPC1.IN                                            :PPC1 Hole Diameter 1 {F13.4}
HD2_PPC1.IN                                            :PPC1 Hole Diameter 2 {F13.4}
PR   .UNITLESS                                         :Possion's Ratio {F13.4}
VPVS .UNITLESS                                         :VpVs Ratio {F13.4}
#-----------------------------------------------------------------------------
# 
#      MD         MD           BS           DTCO         DTSH       GR_EDTC      HD1_PPC1     HD2_PPC1       PR           VPVS
#
~A  
# ...
 1045.7688    1045.7688       9.5000     122.6909     286.4825      59.1110       9.5322       9.4979       0.3877       2.3350
 1045.9212    1045.9212       9.5000     122.2025     285.5255      57.0038       9.5433       9.4979       0.3879       2.3365
 1046.0736    1046.0736       9.5000     121.6542     282.1958      58.6407       9.5433       9.4979       0.3859       2.3197
 1046.2260    1046.2260       9.5000     121.2888     277.7090      59.6440       9.5322       9.5237       0.3821       2.2897
 1046.3784    1046.3784       9.5000     119.0619     273.1909      60.5720       9.5433       9.5108       0.3828       2.2945
 1046.5308    1046.5308       9.5000     114.2431     268.4200      59.1096       9.5433       9.5237       0.3894       2.3496
 1046.6832    1046.6832       9.5000     111.7185     263.1582      56.8342       9.5322       9.5237       0.3901       2.3555
 1046.8356    1046.8356       9.5000     110.7208     257.5028      53.2301       9.5433       9.5237       0.3866       2.3257
 1046.9880    1046.9880       9.5000     110.4874     252.7189      51.9576       9.5433       9.5108       0.3818       2.2873
 1047.1404    1047.1404       9.5000     110.7985     250.6937      50.3047       9.5322       9.5237       0.3786       2.2626
 1047.2928    1047.2928       9.5000     111.1002     251.5563      48.3872       9.5655       9.5237       0.3788       2.2642
 1047.4452    1047.4452       9.5000     111.1969     254.8138      50.8993       9.5433       9.5108       0.3824       2.2916
 1047.5976    1047.5976       9.5000     111.4603     258.5328      56.8954       9.5322       9.5108       0.3858       2.3195
 1047.7500    1047.7500       9.5000     112.1156     261.4159      61.8278       9.5544       9.4856       0.3873       2.3317
 1047.9024    1047.9024       9.5000     112.7289     263.0752      62.1615       9.5433       9.4979       0.3875       2.3337
 1048.0548    1048.0548       9.5000     113.0586     264.3218      59.6459       9.5322       9.4979       0.3880       2.3379
 1048.2072    1048.2072       9.5000     113.4204     265.9036      56.9672       9.5322       9.5108       0.3888       2.3444
 1048.3596    1048.3596       9.5000     114.5635     267.4148      56.6073       9.5544       9.5114       0.3876       2.3342
 1048.5120    1048.5120       9.5000     117.6138     268.4562      57.9368       9.5433       9.4985       0.3812       2.2825
 1048.6644    1048.6644       9.5000     120.5934     269.5570      63.0401       9.5322       9.5108       0.3749       2.2353
 1048.8168    1048.8168       9.5000     121.3226     271.5622      65.2529       9.5322       9.5237       0.3753       2.2383
 1048.9692    1048.9692       9.5000     120.6745     273.9920      61.8971       9.5654       9.5108       0.3797       2.2705
 1049.1216    1049.1216       9.5000     120.1498     275.6510      60.3505       9.5654       9.4979       0.3827       2.2942
 1049.2740    1049.2740       9.5000     119.4778     275.9185      56.2478       9.5654       9.5237       0.3846       2.3094
 1049.4264    1049.4264       9.5000     117.7932     275.0024      61.3780       9.5654       9.5108       0.3877       2.3346
 1049.5788    1049.5788       9.5000     113.8662     273.6362      61.6516       9.5655       9.5237       0.3953       2.4031
 1049.7312    1049.7312       9.5000     111.0564     272.7953      68.8320       9.5766       9.5237       0.4007       2.4564
 1049.8836    1049.8836       9.5000     110.0747     271.9358      66.8045       9.5544       9.5237       0.4020       2.4705
 1050.0360    1050.0360       9.5000     111.0322     271.7178      65.7710       9.5544       9.5237       0.3998       2.4472
 1050.1884    1050.1884       9.5000     114.4702     272.9609      63.9123       9.5766       9.5237       0.3933       2.3846
 1050.3408    1050.3408       9.5000     120.4162     274.9402      64.3051       9.5655       9.5237       0.3813       2.2832
 1050.4932    1050.4932       9.5000     121.5159     277.4083      69.9966       9.5766       9.4979       0.3813       2.2829
 1050.6456    1050.6456       9.5000     121.3730     280.5500      68.4225       9.5878       9.5108       0.3849       2.3115
 1050.7980    1050.7980       9.5000     122.4917     284.1408      68.3121       9.5878       9.5237       0.3859       2.3197
 1050.9504    1050.9504       9.5000     123.1168     287.7755      63.6854       9.5545       9.5237       0.3880       2.3374
 1051.1028    1051.1028       9.5000     122.6467     290.6045      60.7497       9.5433       9.5237       0.3916       2.3694
 1051.2552    1051.2552       9.5000     121.3816     291.9565      58.2636       9.5544       9.5108       0.3955       2.4053
 1051.4076    1051.4076       9.5000     120.3267     291.6046      58.7989       9.5545       9.4979       0.3974       2.4234
 1051.5600    1051.5600       9.5000     119.7582     288.5313      62.0122       9.5433       9.5237       0.3959       2.4093
 1051.7124    1051.7124       9.5000     119.9308     282.6982      65.1220       9.5433       9.5237       0.3903       2.3572
 1051.8648    1051.8648       9.5000     120.6914     281.1540      65.4581       9.5433       9.5237       0.3870       2.3295
 1052.0172    1052.0172       9.5000     121.4764     282.6516      61.3699       9.5322       9.5237       0.3867       2.3268
 1052.1696    1052.1696       9.5000     121.5987     283.4931      58.5993       9.5433       9.5360       0.3873       2.3314
 1052.3220    1052.3220       9.5000     120.6844     283.1457      58.6770       9.5322       9.5237       0.3890       2.3462
 1052.4744    1052.4744       9.5000     118.9701     281.9799      66.0931       9.5322       9.5237       0.3917       2.3702
 1052.6268    1052.6268       9.5000     117.0850     280.3230      69.0807       9.5433       9.5237       0.3943       2.3942
 1052.7792    1052.7792       9.5000     115.7196     277.3087      67.6786       9.5433       9.5237       0.3946       2.3964
 1052.9316    1052.9316       9.5000     115.1632     274.7408      62.8804       9.5210       9.5237       0.3934       2.3857
 1053.0840    1053.0840       9.5000     115.1040     274.8845      60.8788       9.5322       9.5237       0.3937       2.3881
 1053.2364    1053.2364       9.5000     115.0212     277.3087      57.3027       9.5433       9.5237       0.3961       2.4109
 1053.3888    1053.3888       9.5000     115.3733     280.1745      56.4115       9.5322       9.5237       0.3979       2.4284
 1053.5412    1053.5412       9.5000     115.8394     281.9663      54.8076       9.5322       9.5360       0.3985       2.4341
 1053.6936    1053.6936       9.5000     115.9212     282.1971      58.4685       9.5432       9.5237       0.3985       2.4344
 1053.8460    1053.8460       9.5000     115.5277     280.9914      58.8260       9.5322       9.5360       0.3983       2.4322
 1053.9984    1053.9984       9.5000     114.9016     280.1411      57.9801       9.5322       9.5237       0.3989       2.4381
 1054.1508    1054.1508       9.5000     114.1844     280.5678      58.9736       9.5322       9.5237       0.4007       2.4571
 1054.3032    1054.3032       9.5000     113.6299     281.5350      59.4560       9.5322       9.5237       0.4027       2.4776
 1054.4556    1054.4556       9.5000     113.7383     282.5472      61.4874       9.5322       9.5237       0.4033       2.4842
 1054.6080    1054.6080       9.5000     113.8994     283.4900      57.7901       9.5322       9.5237       0.4038       2.4890
 1054.7604    1054.7604       9.5000     113.7892     283.3199      57.3656       9.5210       9.5108       0.4038       2.4899
 1054.9128    1054.9128       9.5000     113.5932     281.5496      51.5588       9.5322       9.5108       0.4028       2.4786
 1055.0652    1055.0652       9.5000     113.6593     279.1829      46.3503       9.5322       9.5237       0.4007       2.4563
 1055.2176    1055.2176       9.5000     114.5112     278.9303      45.5076       9.5322       9.5237       0.3986       2.4358
