~VERSION INFORMATION
VERS.           2.0   :CWLS Log ASCII Standard - VERSION 2.0
WRAP.           NO    :One Line per depth step
PROD.  Schlumberger   :LAS Producer
PROG.  DLIS to ASCII 2.3                               :LAS Program name and version
CREA.        2020/03/20 13:20                          :LAS Creation date {YYYY/MM/DD hh:mm}
DLIS_CREA.  2020-Feb-20 13:36                          :DLIS Creation date and time {YYYY-MMM-DD hh:mm}
SOURCE.     Esso_BTWW2PH_S1R1_SonicScanner_220m_1352m_Processed Results DLIS.dlis  :DLIS File Name
FILE-ID.     West Barracouta W2 Pilot Hole             :File Identification Number
#--------------------------------------------------
~WELL INFORMATION
#MNEM.UNIT      DATA             DESCRIPTION
#---- ------ --------------   -----------------------------
STRT .M       220.0656       :START DEPTH     
STOP .M      1352.8548       :STOP DEPTH     
STEP .M         0.1524       :STEP     
NULL .          -999.25      :NULL VALUE
COMP .        Esso Australia Pty Ltd                   :COMPANY
WELL .        West Barracouta W2 Pilot Hole            :WELL
FLD  .        West Barracouta                          :FIELD
LOC  .                                                 :LOCATION
CNTY .                                                 :COUNTY
STAT .        Victoria                                 :STATE
CTRY .        Australia                                :COUNTRY
API  .                                                 :API NUMBER
UWI  .                                                 :UNIQUE WELL ID
DATE .        13-Feb-2020                              :LOG DATE {DD-MMM-YYYY}
SRVC .        Schlumberger                             :SERVICE COMPANY
LATI .DEG     38° 19' 4.505" S                        :LATITUDE
LONG .DEG     147° 36' 57.772" E                      :LONGITUDE
GDAT .                                                 :GeoDetic Datum
#-----------------------------------------------------------------------------
~PARAMETER INFORMATION
#MNEM.UNIT    VALUE                      DESCRIPTION
#---- -----   --------------------       ------------------------
RUN  .          S1R1                     :RUN NUMBER
PDAT .        MSL                        :Permanent Datum
EPD  .M           0.000000               :Elevation of Permanent Datum above Mean Sea Level
LMF  .          DF                       :Logging Measured From (Name of Logging Elevation Reference)
APD  .M          46.400002               :Elevation of Depth Reference (LMF) above Permanent Datum
#-----------------------------------------------------------------------------
~CURVE INFORMATION
#MNEM.UNIT   API CODE                                  DESCRIPTION
#---- -----  --------                                  -----------------------
MD   .M                                                :DEPTH (BOREHOLE) {F10.4}
MD   .M                                                : {F13.4}
BS   .IN                                               :Bit Size {F13.4}
DTCO .US/F                                             :Compressional slowness {F13.4}
DTSH .US/F                                             :Shear slowness {F13.4}
GR_EDTC.GAPI                                           :Gamma Ray {F13.4}
HD1_PPC1.IN                                            :PPC1 Hole Diameter 1 {F13.4}
HD2_PPC1.IN                                            :PPC1 Hole Diameter 2 {F13.4}
PR   .UNITLESS                                         :Possion's Ratio {F13.4}
VPVS .UNITLESS                                         :VpVs Ratio {F13.4}
#-----------------------------------------------------------------------------
# 
#      MD         MD           BS           DTCO         DTSH       GR_EDTC      HD1_PPC1     HD2_PPC1       PR           VPVS
#
~A  
# ...
  815.3400     815.3400       9.5000      95.8897     193.7978      24.5711       9.5541       9.5114       0.3379       2.0210
  815.4924     815.4924       9.5000      95.9118     191.8639      24.5345       9.5431       9.4990       0.3334       2.0004
  815.6448     815.6448       9.5000      97.0170     192.7609      25.2349       9.5430       9.5114       0.3304       1.9869
  815.7972     815.7972       9.5000      98.3944     195.4248      24.3880       9.5431       9.5119       0.3302       1.9861
  815.9496     815.9496       9.5000      99.5038     198.7580      22.3127       9.5541       9.5114       0.3328       1.9975
  816.1020     816.1020       9.5000      99.8843     201.8671      19.8109       9.5541       9.5114       0.3379       2.0210
  816.2544     816.2544       9.5000      99.3107     202.6818      21.0515       9.5541       9.5114       0.3420       2.0409
  816.4068     816.4068       9.5000      98.3853     199.7305      19.1905       9.5541       9.5243       0.3398       2.0301
  816.5592     816.5592       9.5000      97.7025     196.3097      17.4908       9.5431       9.5114       0.3354       2.0093
  816.7116     816.7116       9.5000      97.5139     195.0333      14.9286       9.5207       9.4867       0.3333       2.0001
  816.8640     816.8640       9.5000      97.8435     196.9936      17.1558       9.5318       9.5114       0.3363       2.0134
  817.0164     817.0164       9.5000      98.5380     200.9776      20.2038       9.5318       9.5243       0.3418       2.0396
  817.1688     817.1688       9.5000      99.0451     204.8015      20.4242       9.5207       9.4990       0.3474       2.0678
  817.3212     817.3212       9.5000      99.1705     207.6006      20.2547       9.5207       9.5114       0.3522       2.0934
  817.4736     817.4736       9.5000      99.1357     208.0299      20.2271       9.5318       9.4990       0.3531       2.0984
  817.6260     817.6260       9.5000      99.7659     207.4960      22.3179       9.5541       9.5119       0.3497       2.0798
  817.7784     817.7784       9.5000     100.6662     206.4906      24.9966       9.5541       9.5243       0.3441       2.0512
  817.9308     817.9308       9.5000     101.6422     203.9955      25.1089       9.5431       9.5119       0.3349       2.0070
  818.0832     818.0832       9.5000     102.2348     199.7086      24.8793       9.5541       9.5243       0.3224       1.9534
  818.2356     818.2356       9.5000     102.2477     194.7897      24.9336       9.5541       9.5243       0.3098       1.9051
  818.3880     818.3880       9.5000     101.9104     192.7052      25.1326       9.5431       9.5119       0.3059       1.8909
  818.5404     818.5404       9.5000     101.5886     194.3182      25.7554       9.5431       9.5119       0.3119       1.9128
  818.6928     818.6928       9.5000     101.0997     198.7305      23.0216       9.5431       9.5243       0.3254       1.9657
  818.8452     818.8452       9.5000     100.4785     203.2022      23.9482       9.5431       9.5243       0.3382       2.0223
  818.9976     818.9976       9.5000      99.8738     205.3290      19.9743       9.5431       9.5119       0.3450       2.0559
  819.1500     819.1500       9.5000      99.0378     204.3513      19.1851       9.5431       9.4990       0.3465       2.0634
  819.3024     819.3024       9.5000      98.2334     202.1485      16.8331       9.5431       9.5243       0.3454       2.0578
  819.4548     819.4548       9.5000      97.7874     201.3020      18.4401       9.5431       9.5119       0.3456       2.0586
  819.6072     819.6072       9.5000      98.0371     202.8696      19.4401       9.5431       9.4990       0.3477       2.0693
  819.7596     819.7596       9.5000      99.1756     205.2263      22.1862       9.5431       9.5243       0.3477       2.0693
  819.9120     819.9120       9.5000     100.4125     206.9733      22.4386       9.5431       9.4990       0.3461       2.0612
  820.0644     820.0644       9.5000     101.3522     207.4163      24.4841       9.5431       9.5114       0.3432       2.0465
  820.2168     820.2168       9.5000     102.2084     207.1277      25.6147       9.5431       9.5243       0.3391       2.0265
  820.3692     820.3692       9.5000     102.5933     207.7034      26.7146       9.5431       9.5119       0.3386       2.0245
  820.5216     820.5216       9.5000     102.2738     209.5957      27.5008       9.5431       9.5243       0.3437       2.0494
  820.6740     820.6740       9.5000     101.4759     211.1041      26.1460       9.5431       9.5119       0.3498       2.0803
  820.8264     820.8264       9.5000     100.3849     209.9502      26.3168       9.5431       9.5119       0.3518       2.0915
  820.9788     820.9788       9.5000      99.1434     205.0433      22.6556       9.5431       9.5243       0.3474       2.0681
  821.1312     821.1312       9.5000      98.1631     198.5960      23.9828       9.5431       9.5243       0.3383       2.0231
  821.2836     821.2836       9.5000      97.2166     195.8730      22.4295       9.5431       9.5372       0.3366       2.0148
  821.4360     821.4360       9.5000      96.2819     195.5564      21.8915       9.5541       9.5119       0.3400       2.0311
  821.5884     821.5884       9.5000      95.7085     196.5026      16.9235       9.5431       9.4990       0.3445       2.0531
  821.7408     821.7408       9.5000      95.8251     197.2314      19.5184       9.5431       9.4990       0.3455       2.0582
  821.8932     821.8932       9.5000      97.1018     198.2609      20.5642       9.5431       9.4990       0.3422       2.0418
  822.0456     822.0456       9.5000      99.5485     203.5219      24.8813       9.5541       9.5119       0.3428       2.0444
  822.1980     822.1980       9.5000     103.2834     217.2038      25.8699       9.5319       9.5114       0.3539       2.1030
  822.3504     822.3504       9.5000     107.5972     235.1048      30.8549       9.5319       9.5119       0.3675       2.1850
  822.5028     822.5028       9.5000     111.6024     249.9272      30.8833       9.5319       9.5119       0.3755       2.2394
  822.6552     822.6552       9.5000     114.4757     256.3429      31.6729       9.5207       9.5119       0.3754       2.2393
  822.8076     822.8076       9.5000     115.4063     255.5111      30.6029       9.5431       9.5243       0.3719       2.2140
  822.9600     822.9600       9.5000     113.5158     252.0359      29.4785       9.5209       9.4990       0.3728       2.2203
  823.1124     823.1124       9.5000     109.7247     245.6858      28.2589       9.5097       9.4990       0.3754       2.2391
  823.2648     823.2648       9.5000     105.9749     237.1367      28.3374       9.5207       9.5119       0.3752       2.2377
  823.4172     823.4172       9.5000     102.4587     223.6699      29.8872       9.5319       9.5119       0.3672       2.1830
  823.5696     823.5696       9.5000      98.7080     210.6932      29.8896       9.4986       9.5119       0.3594       2.1345
  823.7220     823.7220       9.5000      94.6074     199.9743      28.2447       9.5207       9.4867       0.3558       2.1137
  823.8744     823.8744       9.5000      90.6765     188.1157      23.5645       9.5319       9.4990       0.3487       2.0746
  824.0268     824.0268       9.5000      88.5190     176.4114      18.9716       9.5097       9.4990       0.3317       1.9929
  824.1792     824.1792       9.5000      88.7793     168.4550      17.9740       9.5207       9.4990       0.3077       1.8975
  824.3316     824.3316       9.5000      91.7576     168.2611      20.3152       9.5431       9.4990       0.2884       1.8338
  824.4840     824.4840       9.5000      97.0064     177.3748      26.5844       9.5431       9.5119       0.2866       1.8285
  824.6364     824.6364       9.5000     103.2189     194.7434      32.3944       9.5207       9.4990       0.3047       1.8867
  824.7888     824.7888       9.5000     107.7764     217.6879      36.0281       9.5541       9.4990       0.3376       2.0198
