~VERSION INFORMATION
VERS.           2.0   :CWLS Log ASCII Standard - VERSION 2.0
WRAP.           NO    :One Line per depth step
PROD.  Schlumberger   :LAS Producer
PROG.  DLIS to ASCII 2.3                               :LAS Program name and version
CREA.        2020/03/20 13:20                          :LAS Creation date {YYYY/MM/DD hh:mm}
DLIS_CREA.  2020-Feb-20 13:36                          :DLIS Creation date and time {YYYY-MMM-DD hh:mm}
SOURCE.     Esso_BTWW2PH_S1R1_SonicScanner_220m_1352m_Processed Results DLIS.dlis  :DLIS File Name
FILE-ID.     West Barracouta W2 Pilot Hole             :File Identification Number
#--------------------------------------------------
~WELL INFORMATION
#MNEM.UNIT      DATA             DESCRIPTION
#---- ------ --------------   -----------------------------
STRT .M       220.0656       :START DEPTH     
STOP .M      1352.8548       :STOP DEPTH     
STEP .M         0.1524       :STEP     
NULL .          -999.25      :NULL VALUE
COMP .        Esso Australia Pty Ltd                   :COMPANY
WELL .        West Barracouta W2 Pilot Hole            :WELL
FLD  .        West Barracouta                          :FIELD
LOC  .                                                 :LOCATION
CNTY .                                                 :COUNTY
STAT .        Victoria                                 :STATE
CTRY .        Australia                                :COUNTRY
API  .                                                 :API NUMBER
UWI  .                                                 :UNIQUE WELL ID
DATE .        13-Feb-2020                              :LOG DATE {DD-MMM-YYYY}
SRVC .        Schlumberger                             :SERVICE COMPANY
LATI .DEG     38° 19' 4.505" S                        :LATITUDE
LONG .DEG     147° 36' 57.772" E                      :LONGITUDE
GDAT .                                                 :GeoDetic Datum
#-----------------------------------------------------------------------------
~PARAMETER INFORMATION
#MNEM.UNIT    VALUE                      DESCRIPTION
#---- -----   --------------------       ------------------------
RUN  .          S1R1                     :RUN NUMBER
PDAT .        MSL                        :Permanent Datum
EPD  .M           0.000000               :Elevation of Permanent Datum above Mean Sea Level
LMF  .          DF                       :Logging Measured From (Name of Logging Elevation Reference)
APD  .M          46.400002               :Elevation of Depth Reference (LMF) above Permanent Datum
#-----------------------------------------------------------------------------
~CURVE INFORMATION
#MNEM.UNIT   API CODE                                  DESCRIPTION
#---- -----  --------                                  -----------------------
MD   .M                                                :DEPTH (BOREHOLE) {F10.4}
MD   .M                                                : {F13.4}
BS   .IN                                               :Bit Size {F13.4}
DTCO .US/F                                             :Compressional slowness {F13.4}
DTSH .US/F                                             :Shear slowness {F13.4}
GR_EDTC.GAPI                                           :Gamma Ray {F13.4}
HD1_PPC1.IN                                            :PPC1 Hole Diameter 1 {F13.4}
HD2_PPC1.IN                                            :PPC1 Hole Diameter 2 {F13.4}
PR   .UNITLESS                                         :Possion's Ratio {F13.4}
VPVS .UNITLESS                                         :VpVs Ratio {F13.4}
#-----------------------------------------------------------------------------
# 
#      MD         MD           BS           DTCO         DTSH       GR_EDTC      HD1_PPC1     HD2_PPC1       PR           VPVS
#
~A  
# ...
 1189.7868    1189.7868       9.5000      83.6700     168.8463      64.6328       9.6542       9.4850       0.3373       2.0180
 1189.9392    1189.9392       9.5000      95.5430     189.3986      72.3351       9.6875       9.4979       0.3293       1.9823
 1190.0916    1190.0916       9.5000     104.4597     213.0648      77.9050       9.6986       9.4732       0.3418       2.0397
 1190.2440    1190.2440       9.5000     110.6843     231.0603      80.3785       9.7097       9.4856       0.3511       2.0876
 1190.3964    1190.3964       9.5000     115.5006     243.2542      81.6267       9.7097       9.4979       0.3545       2.1061
 1190.5488    1190.5488       9.5000     116.9021     250.2759      80.6776       9.7097       9.4979       0.3605       2.1409
 1190.7012    1190.7012       9.5000     115.9576     252.9807      83.3685       9.6986       9.4979       0.3670       2.1817
 1190.8536    1190.8536       9.5000     115.9980     253.2131      81.7712       9.7097       9.4979       0.3672       2.1829
 1191.0060    1191.0060       9.5000     115.9751     252.3220      83.8869       9.7097       9.4979       0.3661       2.1757
 1191.1584    1191.1584       9.5000     115.8096     251.2906      82.4734       9.7097       9.4979       0.3652       2.1699
 1191.3108    1191.3108       9.5000     115.7700     250.7116      82.5875       9.6986       9.4979       0.3645       2.1656
 1191.4632    1191.4632       9.5000     115.9480     250.4861      79.7305       9.6986       9.4850       0.3636       2.1603
 1191.6156    1191.6156       9.5000     116.0511     250.7389      81.7031       9.7097       9.4850       0.3637       2.1606
 1191.7680    1191.7680       9.5000     115.8473     251.0536      83.1660       9.7097       9.4979       0.3647       2.1671
 1191.9204    1191.9204       9.5000     115.7413     251.2078      85.3026       9.6986       9.4979       0.3653       2.1704
 1192.0728    1192.0728       9.5000     115.6248     251.3213      82.6353       9.6986       9.4979       0.3658       2.1736
 1192.2252    1192.2252       9.5000     115.3274     251.5499      81.9146       9.7097       9.4603       0.3669       2.1812
 1192.3776    1192.3776       9.5000     114.9088     252.0613      81.0047       9.7097       9.4850       0.3688       2.1936
 1192.5300    1192.5300       9.5000     114.4442     252.9297      82.5102       9.7208       9.4979       0.3713       2.2101
 1192.6824    1192.6824       9.5000     113.9791     253.7617      83.7879       9.7097       9.4979       0.3736       2.2264
 1192.8348    1192.8348       9.5000     113.5531     254.1125      84.4669       9.7097       9.4727       0.3752       2.2378
 1192.9872    1192.9872       9.5000     113.2808     253.9742      85.3048       9.7097       9.4850       0.3758       2.2420
 1193.1396    1193.1396       9.5000     112.9327     253.7374      84.8372       9.7097       9.4721       0.3765       2.2468
 1193.2920    1193.2920       9.5000     112.7919     253.8061      88.5024       9.7097       9.4597       0.3770       2.2502
 1193.4444    1193.4444       9.5000     112.8542     254.2652      84.5577       9.7097       9.4850       0.3773       2.2530
 1193.5968    1193.5968       9.5000     113.0555     255.0632      83.1204       9.7319       9.4597       0.3777       2.2561
 1193.7492    1193.7492       9.5000     113.5374     255.7315      89.0648       9.6986       9.4850       0.3772       2.2524
 1193.9016    1193.9016       9.5000     114.3613     255.6371      95.1573       9.7097       9.4727       0.3749       2.2353
 1194.0540    1194.0540       9.5000     115.2066     254.4746     100.2311       9.7097       9.4979       0.3711       2.2089
 1194.2064    1194.2064       9.5000     115.7003     252.1938      93.7041       9.7097       9.4979       0.3667       2.1797
 1194.3588    1194.3588       9.5000     114.9678     250.7144      88.7023       9.7097       9.4727       0.3669       2.1807
 1194.5112    1194.5112       9.5000     111.9567     249.5013      85.3000       9.7097       9.4856       0.3739       2.2286
 1194.6636    1194.6636       9.5000     108.4905     247.6150      80.7313       9.7097       9.4979       0.3812       2.2824
 1194.8160    1194.8160       9.5000     105.2560     245.0445      79.1728       9.7097       9.4850       0.3869       2.3281
 1194.9684    1194.9684       9.5000     103.2685     243.1570      80.2857       9.7207       9.4850       0.3900       2.3546
 1195.1208    1195.1208       9.5000     102.8060     241.7418      79.9580       9.7319       9.4850       0.3896       2.3514
 1195.2732    1195.2732       9.5000     102.1032     238.5348      79.5407       9.7097       9.4727       0.3878       2.3362
 1195.4256    1195.4256       9.5000     102.5022     236.1700      81.1392       9.7319       9.4850       0.3840       2.3040
 1195.5780    1195.5780       9.5000     103.8458     235.9088      86.0940       9.7097       9.4850       0.3798       2.2717
 1195.7304    1195.7304       9.5000     107.7690     238.3970      87.4400       9.7207       9.4856       0.3716       2.2121
 1195.8828    1195.8828       9.5000     111.1690     241.9572      91.6369       9.7207       9.4979       0.3662       2.1765
 1196.0352    1196.0352       9.5000     114.8511     246.2948      92.8423       9.7319       9.4850       0.3611       2.1445
 1196.1876    1196.1876       9.5000     117.1348     250.5620      93.8641       9.7097       9.4979       0.3602       2.1391
 1196.3400    1196.3400       9.5000     117.6043     253.5004      89.0012       9.7208       9.4979       0.3629       2.1555
 1196.4924    1196.4924       9.5000     117.3963     254.1101      88.9455       9.7097       9.4979       0.3643       2.1645
 1196.6448    1196.6448       9.5000     116.7086     252.9701      93.5141       9.7097       9.4979       0.3648       2.1675
 1196.7972    1196.7972       9.5000     116.4857     251.8975      89.6160       9.7097       9.4979       0.3640       2.1625
 1196.9496    1196.9496       9.5000     116.4896     251.8818      87.5504       9.7097       9.4732       0.3640       2.1623
 1197.1020    1197.1020       9.5000     116.5636     252.6611      82.7602       9.7097       9.4856       0.3648       2.1676
 1197.2544    1197.2544       9.5000     116.7297     253.2796      83.4536       9.6986       9.4979       0.3652       2.1698
 1197.4068    1197.4068       9.5000     116.8259     253.3396      82.8515       9.7097       9.4856       0.3650       2.1685
 1197.5592    1197.5592       9.5000     116.7015     252.8730      83.1205       9.7097       9.4979       0.3647       2.1668
 1197.7116    1197.7116       9.5000     116.4565     252.4077      86.4397       9.7097       9.4979       0.3648       2.1674
 1197.8640    1197.8640       9.5000     116.2902     252.3056      86.3312       9.7097       9.4856       0.3651       2.1696
 1198.0164    1198.0164       9.5000     116.3806     252.4767      88.6749       9.6986       9.4979       0.3651       2.1694
 1198.1688    1198.1688       9.5000     116.7314     253.1859      88.6967       9.7097       9.4979       0.3650       2.1690
 1198.3212    1198.3212       9.5000     117.0938     254.2249      88.8666       9.7097       9.4727       0.3654       2.1711
 1198.4736    1198.4736       9.5000     117.5800     254.8185      87.7784       9.7097       9.4856       0.3647       2.1672
 1198.6260    1198.6260       9.5000     118.5201     254.0336      85.4704       9.7097       9.4850       0.3609       2.1434
 1198.7784    1198.7784       9.5000     118.5524     251.9003      86.5101       9.6986       9.4856       0.3577       2.1248
 1198.9308    1198.9308       9.5000     118.4038     250.3235      84.6986       9.7097       9.4979       0.3559       2.1142
 1199.0832    1199.0832       9.5000     118.5836     250.0444      81.4986       9.7097       9.4732       0.3549       2.1086
 1199.2356    1199.2356       9.5000     119.1135     250.5678      80.3271       9.7207       9.4727       0.3540       2.1036
