~VERSION INFORMATION
VERS.           2.0   :CWLS Log ASCII Standard - VERSION 2.0
WRAP.           NO    :One Line per depth step
PROD.  Schlumberger   :LAS Producer
PROG.  DLIS to ASCII 2.3                               :LAS Program name and version
CREA.        2020/03/20 13:20                          :LAS Creation date {YYYY/MM/DD hh:mm}
DLIS_CREA.  2020-Feb-20 13:36                          :DLIS Creation date and time {YYYY-MMM-DD hh:mm}
SOURCE.     Esso_BTWW2PH_S1R1_SonicScanner_220m_1352m_Processed Results DLIS.dlis  :DLIS File Name
FILE-ID.     West Barracouta W2 Pilot Hole             :File Identification Number
#--------------------------------------------------
~WELL INFORMATION
#MNEM.UNIT      DATA             DESCRIPTION
#---- ------ --------------   -----------------------------
STRT .M       220.0656       :START DEPTH     
STOP .M      1352.8548       :STOP DEPTH     
STEP .M         0.1524       :STEP     
NULL .          -999.25      :NULL VALUE
COMP .        Esso Australia Pty Ltd                   :COMPANY
WELL .        West Barracouta W2 Pilot Hole            :WELL
FLD  .        West Barracouta                          :FIELD
LOC  .                                                 :LOCATION
CNTY .                                                 :COUNTY
STAT .        Victoria                                 :STATE
CTRY .        Australia                                :COUNTRY
API  .                                                 :API NUMBER
UWI  .                                                 :UNIQUE WELL ID
DATE .        13-Feb-2020                              :LOG DATE {DD-MMM-YYYY}
SRVC .        Schlumberger                             :SERVICE COMPANY
LATI .DEG     38° 19' 4.505" S                        :LATITUDE
LONG .DEG     147° 36' 57.772" E                      :LONGITUDE
GDAT .                                                 :GeoDetic Datum
#-----------------------------------------------------------------------------
~PARAMETER INFORMATION
#MNEM.UNIT    VALUE                      DESCRIPTION
#---- -----   --------------------       ------------------------
RUN  .          S1R1                     :RUN NUMBER
PDAT .        MSL                        :Permanent Datum
EPD  .M           0.000000               :Elevation of Permanent Datum above Mean Sea Level
LMF  .          DF                       :Logging Measured From (Name of Logging Elevation Reference)
APD  .M          46.400002               :Elevation of Depth Reference (LMF) above Permanent Datum
#-----------------------------------------------------------------------------
~CURVE INFORMATION
#MNEM.UNIT   API CODE                                  DESCRIPTION
#---- -----  --------                                  -----------------------
MD   .M                                                :DEPTH (BOREHOLE) {F10.4}
MD   .M                                                : {F13.4}
BS   .IN                                               :Bit Size {F13.4}
DTCO .US/F                                             :Compressional slowness {F13.4}
DTSH .US/F                                             :Shear slowness {F13.4}
GR_EDTC.GAPI                                           :Gamma Ray {F13.4}
HD1_PPC1.IN                                            :PPC1 Hole Diameter 1 {F13.4}
HD2_PPC1.IN                                            :PPC1 Hole Diameter 2 {F13.4}
PR   .UNITLESS                                         :Possion's Ratio {F13.4}
VPVS .UNITLESS                                         :VpVs Ratio {F13.4}
#-----------------------------------------------------------------------------
# 
#      MD         MD           BS           DTCO         DTSH       GR_EDTC      HD1_PPC1     HD2_PPC1       PR           VPVS
#
~A  
# ...
  296.8752     296.8752      17.5000     128.2607     268.7399      13.4077      12.4484      12.4738       0.3525       2.0953
  297.0276     297.0276      17.5000     127.0504     273.7500      12.6990      12.4379      12.4497       0.3627       2.1547
  297.1800     297.1800      17.5000     126.0682     276.4878      13.3653      12.4484      12.4497       0.3688       2.1932
  297.3324     297.3324      17.5000     125.0094     276.9586      13.4303      12.4587      12.4497       0.3721       2.2155
  297.4848     297.4848      17.5000     124.0374     276.2486      13.4045      12.4691      12.4497       0.3737       2.2271
  297.6372     297.6372      17.5000     123.0363     272.5793      13.5272      12.4587      12.4381       0.3721       2.2154
  297.7896     297.7896      17.5000     122.6271     266.0977      13.0948      12.4693      12.4260       0.3652       2.1700
  297.9420     297.9420      17.5000     122.6459     261.2968      12.1410      12.4589      12.4260       0.3587       2.1305
  298.0944     298.0944      17.5000     123.2511     260.5290      12.0909      12.4484      12.4145       0.3558       2.1138
  298.2468     298.2468      17.5000     124.4889     263.7764      12.6465      12.4796      12.4260       0.3567       2.1189
  298.3992     298.3992      17.5000     126.2150     266.6117      14.5976      12.4587      12.4376       0.3556       2.1124
  298.5516     298.5516      17.5000     127.9304     269.1596      14.0708      12.4379      12.4497       0.3541       2.1040
  298.7040     298.7040      17.5000     129.5138     272.1776      13.2818      12.4379      12.4381       0.3536       2.1015
  298.8564     298.8564      17.5000     130.5822     275.4091      12.0740      12.4379      12.4497       0.3550       2.1091
  299.0088     299.0088      17.5000     131.2670     280.6635      14.1519      12.4273      12.4497       0.3600       2.1381
  299.1612     299.1612      17.5000     131.7868     285.6966      14.7193      12.4379      12.4497       0.3649       2.1679
  299.3136     299.3136      17.5000     132.0636     285.9409      15.5605      12.4170      12.4376       0.3644       2.1652
  299.4660     299.4660      17.5000     132.2685     284.3837      15.6390      12.4066      12.4497       0.3620       2.1500
  299.6184     299.6184      17.5000     132.9941     283.9819      16.3776      12.4066      12.4497       0.3595       2.1353
  299.7708     299.7708      17.5000     134.2513     285.5797      15.9049      12.4170      12.4497       0.3582       2.1272
  299.9232     299.9232      17.5000     135.8036     291.8421      15.8208      12.4484      12.4497       0.3618       2.1490
  300.0756     300.0756      17.5000     137.5690     300.2718      16.5607      12.4484      12.4617       0.3672       2.1827
  300.2280     300.2280      17.5000     139.5471     311.0710      16.1914      12.4379      12.4738       0.3740       2.2291
  300.3804     300.3804      17.5000     140.7323     317.4601      15.6709      12.4379      12.4738       0.3777       2.2558
  300.5328     300.5328      17.5000     140.5723     318.8903      13.9703      12.4379      12.4617       0.3794       2.2685
  300.6852     300.6852      17.5000     140.5723     317.0403      16.7860      12.4379      12.4738       0.3776       2.2554
  300.8376     300.8376      17.5000     140.7580     312.6791      15.9345      12.4379      12.4497       0.3729       2.2214
  300.9900     300.9900      17.5000     140.9514     304.6919      16.0598      12.4484      12.4738       0.3639       2.1617
  301.1424     301.1424      17.5000     141.1661     297.6003      14.0547      12.4484      12.4617       0.3548       2.1082
  301.2948     301.2948      17.5000     141.3458     296.8777      14.9326      12.4484      12.4617       0.3534       2.1004
  301.4472     301.4472      17.5000     140.8861     298.1343      14.8322      12.4484      12.4738       0.3562       2.1161
  301.5996     301.5996      17.5000     139.0978     296.1703      14.8620      12.4484      12.4738       0.3585       2.1292
  301.7520     301.7520      17.5000     136.3040     292.2667      13.4661      12.4484      12.4738       0.3610       2.1442
  301.9044     301.9044      17.5000     132.3064     296.7501      12.4891      12.4484      12.4617       0.3759       2.2429
  302.0568     302.0568      17.5000     128.1380     297.3787      11.0783      12.4484      12.4617       0.3860       2.3208
  302.2092     302.2092      17.5000     127.3933     285.0451      13.1248      12.4484      12.4617       0.3752       2.2375
  302.3616     302.3616      17.5000     128.0458     276.4425      14.4388      12.4484      12.4497       0.3634       2.1589
  302.5140     302.5140      17.5000     128.0278     274.7592      17.2997      12.4484      12.4738       0.3613       2.1461
  302.6664     302.6664      17.5000     126.0726     275.1407      16.0183      12.4484      12.4738       0.3671       2.1824
  302.8188     302.8188      17.5000     123.3903     277.1342      15.4595      12.4484      12.4617       0.3764       2.2460
  302.9712     302.9712      17.5000     120.9360     280.4050      13.7082      12.4484      12.4738       0.3857       2.3186
  303.1236     303.1236      17.5000     118.6727     283.6999      13.7601      12.4484      12.4738       0.3940       2.3906
  303.2760     303.2760      17.5000     117.7825     286.7948      14.1291      12.4379      12.4738       0.3986       2.4350
  303.4284     303.4284      17.5000     120.3238     290.2499      14.9185      12.4379      12.4738       0.3962       2.4122
  303.5808     303.5808      17.5000     125.0108     291.9673      17.1835      12.4379      12.4738       0.3878       2.3355
  303.7332     303.7332      17.5000     128.7097     297.1725      18.2919      12.4379      12.4738       0.3845       2.3089
  303.8856     303.8856      17.5000     133.9435     310.6989      19.4990      12.4379      12.4738       0.3859       2.3196
  304.0380     304.0380      17.5000     137.3732     328.5388      17.7491      12.4379      12.4738       0.3941       2.3916
  304.1904     304.1904      17.5000     138.2405     340.1081      17.8983      12.4379      12.4617       0.4010       2.4603
  304.3428     304.3428      17.5000     138.3760     342.2165      16.7879      12.4379      12.4381       0.4023       2.4731
  304.4952     304.4952      17.5000     138.1027     337.1785      19.1053      12.4379      12.4497       0.3992       2.4415
  304.6476     304.6476      17.5000     136.8779     325.4403      18.2919      12.4484      12.4497       0.3925       2.3776
  304.8000     304.8000      17.5000     134.5564     315.0764      18.3430      12.4691      12.4497       0.3885       2.3416
  304.9524     304.9524      17.5000     132.3373     307.0378      17.1102      12.4587      12.4497       0.3859       2.3201
  305.1048     305.1048      17.5000     130.9824     299.9659      16.5678      12.4691      12.4497       0.3822       2.2901
  305.2572     305.2572      17.5000     130.3356     295.7958      16.8152      12.4691      12.4497       0.3795       2.2695
  305.4096     305.4096      17.5000     130.2698     298.2729      14.7421      12.4691      12.4381       0.3821       2.2897
  305.5620     305.5620      17.5000     130.6371     305.1523      14.6927      12.4796      12.4497       0.3878       2.3359
  305.7144     305.7144      17.5000     131.0113     301.9755      12.3005      12.4796      12.4497       0.3841       2.3050
  305.8668     305.8668      17.5000     131.1115     284.1356      14.0358      12.4796      12.4617       0.3647       2.1671
  306.0192     306.0192      17.5000     130.6572     269.3210      13.7900      12.4796      12.4617       0.3461       2.0613
  306.1716     306.1716      17.5000     129.7743     262.2377      14.3816      12.4796      12.4497       0.3378       2.0207
  306.3240     306.3240      17.5000     128.7783     263.6351      11.5140      12.4796      12.4617       0.3433       2.0472
