~VERSION INFORMATION
VERS.           2.0   :CWLS Log ASCII Standard - VERSION 2.0
WRAP.           NO    :One Line per depth step
PROD.  Schlumberger   :LAS Producer
PROG.  DLIS to ASCII 2.3                               :LAS Program name and version
CREA.        2020/03/20 13:20                          :LAS Creation date {YYYY/MM/DD hh:mm}
DLIS_CREA.  2020-Feb-20 13:36                          :DLIS Creation date and time {YYYY-MMM-DD hh:mm}
SOURCE.     Esso_BTWW2PH_S1R1_SonicScanner_220m_1352m_Processed Results DLIS.dlis  :DLIS File Name
FILE-ID.     West Barracouta W2 Pilot Hole             :File Identification Number
#--------------------------------------------------
~WELL INFORMATION
#MNEM.UNIT      DATA             DESCRIPTION
#---- ------ --------------   -----------------------------
STRT .M       220.0656       :START DEPTH     
STOP .M      1352.8548       :STOP DEPTH     
STEP .M         0.1524       :STEP     
NULL .          -999.25      :NULL VALUE
COMP .        Esso Australia Pty Ltd                   :COMPANY
WELL .        West Barracouta W2 Pilot Hole            :WELL
FLD  .        West Barracouta                          :FIELD
LOC  .                                                 :LOCATION
CNTY .                                                 :COUNTY
STAT .        Victoria                                 :STATE
CTRY .        Australia                                :COUNTRY
API  .                                                 :API NUMBER
UWI  .                                                 :UNIQUE WELL ID
DATE .        13-Feb-2020                              :LOG DATE {DD-MMM-YYYY}
SRVC .        Schlumberger                             :SERVICE COMPANY
LATI .DEG     38° 19' 4.505" S                        :LATITUDE
LONG .DEG     147° 36' 57.772" E                      :LONGITUDE
GDAT .                                                 :GeoDetic Datum
#-----------------------------------------------------------------------------
~PARAMETER INFORMATION
#MNEM.UNIT    VALUE                      DESCRIPTION
#---- -----   --------------------       ------------------------
RUN  .          S1R1                     :RUN NUMBER
PDAT .        MSL                        :Permanent Datum
EPD  .M           0.000000               :Elevation of Permanent Datum above Mean Sea Level
LMF  .          DF                       :Logging Measured From (Name of Logging Elevation Reference)
APD  .M          46.400002               :Elevation of Depth Reference (LMF) above Permanent Datum
#-----------------------------------------------------------------------------
~CURVE INFORMATION
#MNEM.UNIT   API CODE                                  DESCRIPTION
#---- -----  --------                                  -----------------------
MD   .M                                                :DEPTH (BOREHOLE) {F10.4}
MD   .M                                                : {F13.4}
BS   .IN                                               :Bit Size {F13.4}
DTCO .US/F                                             :Compressional slowness {F13.4}
DTSH .US/F                                             :Shear slowness {F13.4}
GR_EDTC.GAPI                                           :Gamma Ray {F13.4}
HD1_PPC1.IN                                            :PPC1 Hole Diameter 1 {F13.4}
HD2_PPC1.IN                                            :PPC1 Hole Diameter 2 {F13.4}
PR   .UNITLESS                                         :Possion's Ratio {F13.4}
VPVS .UNITLESS                                         :VpVs Ratio {F13.4}
#-----------------------------------------------------------------------------
# 
#      MD         MD           BS           DTCO         DTSH       GR_EDTC      HD1_PPC1     HD2_PPC1       PR           VPVS
#
~A  
# ...
  968.9592     968.9592       9.5000     117.5609     277.0380      37.5236       9.5209       9.5237       0.3902       2.3565
  969.1116     969.1116       9.5000     116.1585     272.6909      35.2199       9.5432       9.5108       0.3892       2.3476
  969.2640     969.2640       9.5000     115.0613     267.4619      37.1695       9.5432       9.5108       0.3865       2.3245
  969.4164     969.4164       9.5000     114.6863     262.3087      38.5796       9.5544       9.4856       0.3818       2.2872
  969.5688     969.5688       9.5000     115.5899     261.2373      40.6544       9.5322       9.4985       0.3783       2.2600
  969.7212     969.7212       9.5000     117.5055     263.1223      38.8483       9.5432       9.5108       0.3754       2.2392
  969.8736     969.8736       9.5000     119.8542     268.4127      39.6345       9.5432       9.4985       0.3755       2.2395
  970.0260     970.0260       9.5000     122.0337     276.2489      38.0431       9.5544       9.4985       0.3788       2.2637
  970.1784     970.1784       9.5000     123.8545     283.1584      41.3695       9.5544       9.4985       0.3817       2.2862
  970.3308     970.3308       9.5000     125.3266     287.8075      42.8655       9.5322       9.5108       0.3830       2.2965
  970.4832     970.4832       9.5000     126.1724     292.9311      45.5686       9.5322       9.5108       0.3861       2.3217
  970.6356     970.6356       9.5000     126.0602     297.3004      45.3403       9.5322       9.5108       0.3904       2.3584
  970.7880     970.7880       9.5000     125.0951     299.6283      47.0005       9.5210       9.4985       0.3944       2.3952
  970.9404     970.9404       9.5000     123.1444     299.1186      47.0052       9.5210       9.5237       0.3980       2.4290
  971.0928     971.0928       9.5000     121.2761     293.5093      45.9680       9.5322       9.4856       0.3971       2.4202
  971.2452     971.2452       9.5000     121.7864     284.1023      46.4188       9.5322       9.5108       0.3874       2.3328
  971.3976     971.3976       9.5000     122.4630     279.5000      50.1218       9.5320       9.5108       0.3812       2.2823
  971.5500     971.5500       9.5000     122.4534     282.0243      56.8539       9.5322       9.5237       0.3838       2.3031
  971.7024     971.7024       9.5000     120.9045     284.4877      57.4753       9.5210       9.5237       0.3898       2.3530
  971.8548     971.8548       9.5000     117.2464     284.2390      52.0453       9.5322       9.5108       0.3975       2.4243
  972.0072     972.0072       9.5000     113.9365     275.2324      42.7671       9.5322       9.5114       0.3966       2.4157
  972.1596     972.1596       9.5000     112.3898     256.4964      38.6808       9.5210       9.5108       0.3812       2.2822
  972.3120     972.3120       9.5000     112.2259     247.8355      39.3504       9.5322       9.5108       0.3710       2.2084
  972.4644     972.4644       9.5000     115.2118     253.0918      43.7233       9.5210       9.5108       0.3693       2.1968
  972.6168     972.6168       9.5000     118.6213     265.8176      47.5828       9.5210       9.5108       0.3757       2.2409
  972.7692     972.7692       9.5000     120.4207     278.6845      48.9714       9.5322       9.5237       0.3852       2.3143
  972.9216     972.9216       9.5000     120.4414     287.3802      45.9936       9.5432       9.5237       0.3935       2.3861
  973.0740     973.0740       9.5000     118.6084     289.8141      44.5604       9.5432       9.5237       0.3994       2.4435
  973.2264     973.2264       9.5000     115.3612     285.1104      43.0138       9.5432       9.4979       0.4021       2.4715
  973.3788     973.3788       9.5000     111.8233     275.6047      43.2589       9.5654       9.5108       0.4015       2.4646
  973.5312     973.5312       9.5000     108.6765     265.4505      40.3825       9.5322       9.4985       0.3993       2.4426
  973.6836     973.6836       9.5000     108.4014     259.6323      38.5207       9.5544       9.5114       0.3944       2.3951
  973.8360     973.8360       9.5000     110.7110     261.2251      37.2834       9.5433       9.5108       0.3905       2.3595
  973.9884     973.9884       9.5000     115.7367     275.5102      37.9610       9.5210       9.5108       0.3929       2.3805
  974.1408     974.1408       9.5000     123.4021     301.2276      41.9825       9.5210       9.5108       0.3992       2.4410
  974.2932     974.2932       9.5000     127.6125     315.4189      48.1493       9.5210       9.5108       0.4021       2.4717
  974.4456     974.4456       9.5000     128.8667     319.9847      50.4044       9.5320       9.5237       0.4032       2.4831
  974.5980     974.5980       9.5000     127.8340     323.8290      56.0114       9.5210       9.5108       0.4077       2.5332
  974.7504     974.7504       9.5000     128.0715     328.1803      59.8700       9.5210       9.5108       0.4102       2.5625
  974.9028     974.9028       9.5000     128.3304     330.1677      63.2203       9.5210       9.5108       0.4110       2.5728
  975.0552     975.0552       9.5000     127.4873     329.1063      59.7812       9.5210       9.5108       0.4117       2.5815
  975.2076     975.2076       9.5000     125.2919     323.2612      55.5308       9.5210       9.5237       0.4116       2.5801
  975.3600     975.3600       9.5000     121.8640     309.9670      52.1821       9.5320       9.5108       0.4086       2.5435
  975.5124     975.5124       9.5000     117.9069     294.4804      44.9669       9.5432       9.5237       0.4045       2.4976
  975.6648     975.6648       9.5000     114.7207     277.5288      40.5722       9.5210       9.5108       0.3970       2.4192
  975.8172     975.8172       9.5000     112.5363     267.2837      35.8341       9.5322       9.5237       0.3923       2.3751
  975.9696     975.9696       9.5000     110.9144     264.7613      34.0344       9.5543       9.5108       0.3936       2.3871
  976.1220     976.1220       9.5000     111.0372     265.4688      33.4983       9.5432       9.5237       0.3940       2.3908
  976.2744     976.2744       9.5000     112.6361     269.3960      34.3447       9.5432       9.5108       0.3941       2.3917
  976.4268     976.4268       9.5000     116.5248     275.2564      39.7338       9.5432       9.5108       0.3908       2.3622
  976.5792     976.5792       9.5000     123.5511     283.7921      44.7787       9.5322       9.5108       0.3831       2.2970
  976.7316     976.7316       9.5000     127.3286     297.1700      49.2821       9.5432       9.5114       0.3876       2.3339
  976.8840     976.8840       9.5000     128.8196     306.0061      52.6837       9.5322       9.5108       0.3923       2.3755
  977.0364     977.0364       9.5000     129.0226     310.5036      55.7843       9.5322       9.5108       0.3957       2.4066
  977.1888     977.1888       9.5000     127.6681     310.6889      57.4551       9.5322       9.5237       0.3984       2.4336
  977.3412     977.3412       9.5000     126.3368     308.7721      57.7164       9.5322       9.5108       0.3995       2.4440
  977.4936     977.4936       9.5000     125.3449     307.1224      55.5163       9.5322       9.5237       0.4001       2.4502
  977.6460     977.6460       9.5000     123.6846     303.3330      50.6048       9.5322       9.5237       0.4003       2.4525
  977.7984     977.7984       9.5000     122.0513     295.8198      45.7553       9.5322       9.5237       0.3974       2.4237
  977.9508     977.9508       9.5000     121.7375     289.6866      43.5069       9.5210       9.5237       0.3928       2.3796
  978.1032     978.1032       9.5000     122.6627     289.2501      45.3179       9.5322       9.5108       0.3904       2.3581
  978.2556     978.2556       9.5000     124.1278     291.9765      47.9665       9.5322       9.4979       0.3897       2.3522
  978.4080     978.4080       9.5000     125.2891     298.6253      48.5529       9.5210       9.5114       0.3932       2.3835
